{"AL":[{"name":"Autauga","lat":"32.536382","lng":"-86.644490"},{"name":"Baldwin","lat":"30.659218","lng":"-87.746067"},{"name":"Barbour","lat":"31.870670","lng":"-85.405456"},{"name":"Bibb","lat":"33.015893","lng":"-87.127148"},{"name":"Blount","lat":"33.977448","lng":"-86.567246"},{"name":"Bullock","lat":"32.101759","lng":"-85.717261"},{"name":"Butler","lat":"31.751667","lng":"-86.681969"},{"name":"Calhoun","lat":"33.771706","lng":"-85.822513"},{"name":"Chambers","lat":"32.917943","lng":"-85.391812"},{"name":"Cherokee","lat":"34.069515","lng":"-85.654242"},{"name":"Chilton","lat":"32.854060","lng":"-86.726628"},{"name":"Choctaw","lat":"31.991008","lng":"-88.248887"},{"name":"Clarke","lat":"31.685521","lng":"-87.818624"},{"name":"Clay","lat":"33.267809","lng":"-85.862051"},{"name":"Cleburne","lat":"33.671981","lng":"-85.516109"},{"name":"Coffee","lat":"31.402183","lng":"-85.989201"},{"name":"Colbert","lat":"34.703112","lng":"-87.801457"},{"name":"Conecuh","lat":"31.428293","lng":"-86.992029"},{"name":"Coosa","lat":"32.931445","lng":"-86.243482"},{"name":"Covington","lat":"31.243987","lng":"-86.448721"},{"name":"Crenshaw","lat":"31.732826","lng":"-86.319222"},{"name":"Cullman","lat":"34.131923","lng":"-86.869267"},{"name":"Dale","lat":"31.430654","lng":"-85.609476"},{"name":"Dallas","lat":"32.333540","lng":"-87.114356"},{"name":"DeKalb","lat":"34.460929","lng":"-85.803992"},{"name":"Elmore","lat":"32.597229","lng":"-86.142739"},{"name":"Escambia","lat":"31.121748","lng":"-87.168429"},{"name":"Etowah","lat":"34.047638","lng":"-86.034420"},{"name":"Fayette","lat":"33.732249","lng":"-87.752049"},{"name":"Franklin","lat":"34.441988","lng":"-87.842815"},{"name":"Geneva","lat":"31.090866","lng":"-85.824346"},{"name":"Greene","lat":"32.844497","lng":"-87.964201"},{"name":"Hale","lat":"32.752796","lng":"-87.623061"},{"name":"Henry","lat":"31.516978","lng":"-85.239971"},{"name":"Houston","lat":"31.158193","lng":"-85.296398"},{"name":"Jackson","lat":"34.763522","lng":"-85.977400"},{"name":"Jefferson","lat":"33.553444","lng":"-86.896536"},{"name":"Lamar","lat":"33.787085","lng":"-88.087431"},{"name":"Lauderdale","lat":"34.904122","lng":"-87.650997"},{"name":"Lawrence","lat":"34.529776","lng":"-87.321865"},{"name":"Lee","lat":"32.604064","lng":"-85.353048"},{"name":"Limestone","lat":"34.810239","lng":"-86.981400"},{"name":"Lowndes","lat":"32.147888","lng":"-86.650586"},{"name":"Macon","lat":"32.387027","lng":"-85.692887"},{"name":"Madison","lat":"34.764238","lng":"-86.551080"},{"name":"Marengo","lat":"32.247591","lng":"-87.791091"},{"name":"Marion","lat":"34.138219","lng":"-87.881551"},{"name":"Marshall","lat":"34.309564","lng":"-86.321668"},{"name":"Mobile","lat":"30.684573","lng":"-88.196568"},{"name":"Monroe","lat":"31.580332","lng":"-87.383266"},{"name":"Montgomery","lat":"32.203651","lng":"-86.203831"},{"name":"Morgan","lat":"34.454484","lng":"-86.846402"},{"name":"Perry","lat":"32.639005","lng":"-87.293827"},{"name":"Pickens","lat":"33.296809","lng":"-88.096878"},{"name":"Pike","lat":"31.798726","lng":"-85.941997"},{"name":"Randolph","lat":"33.296475","lng":"-85.464068"},{"name":"Russell","lat":"32.289811","lng":"-85.186980"},{"name":"St. Clair","lat":"33.712963","lng":"-86.315663"},{"name":"Shelby","lat":"33.262937","lng":"-86.678104"},{"name":"Sumter","lat":"32.597481","lng":"-88.200057"},{"name":"Talladega","lat":"33.369277","lng":"-86.175805"},{"name":"Tallapoosa","lat":"32.863369","lng":"-85.799553"},{"name":"Tuscaloosa","lat":"33.290202","lng":"-87.522860"},{"name":"Walker","lat":"33.791571","lng":"-87.301092"},{"name":"Washington","lat":"31.406974","lng":"-88.202078"},{"name":"Wilcox","lat":"31.990330","lng":"-87.302205"},{"name":"Winston","lat":"34.155888","lng":"-87.364147"}],"AK":[{"name":"Aleutians East","lat":"55.243722","lng":"-161.950749"},{"name":"Aleutians West","lat":"51.959447","lng":"-178.338813"},{"name":"Anchorage","lat":"61.177549","lng":"-149.274354"},{"name":"Bethel","lat":"60.928916","lng":"-160.153350"},{"name":"Bristol Bay","lat":"58.731373","lng":"-156.986612"},{"name":"Denali","lat":"63.682732","lng":"-150.026719"},{"name":"Dillingham","lat":"59.824816","lng":"-158.602233"},{"name":"Fairbanks North Star","lat":"64.690832","lng":"-146.599867"},{"name":"Haines","lat":"59.099905","lng":"-135.578102"},{"name":"Hoonah-Angoon","lat":"58.076434","lng":"-135.185100"},{"name":"Juneau","lat":"58.372700","lng":"-134.178781"},{"name":"Kenai Peninsula","lat":"60.366373","lng":"-152.321973"},{"name":"Ketchikan Gateway","lat":"55.449938","lng":"-131.106685"},{"name":"Kodiak Island","lat":"57.553611","lng":"-153.630911"},{"name":"Lake and Peninsula","lat":"58.205065","lng":"-156.705188"},{"name":"Matanuska-Susitna","lat":"62.182174","lng":"-149.407974"},{"name":"Nome","lat":"64.783686","lng":"-164.188912"},{"name":"North Slope","lat":"69.449343","lng":"-153.472830"},{"name":"Northwest Arctic","lat":"67.005066","lng":"-160.021086"},{"name":"Petersburg","lat":"56.639612","lng":"-133.527996"},{"name":"Prince of Wales-Hyder","lat":"55.415683","lng":"-132.875734"},{"name":"Sitka","lat":"57.142509","lng":"-135.332624"},{"name":"Skagway","lat":"59.575097","lng":"-135.335418"},{"name":"Southeast Fairbanks","lat":"63.864997","lng":"-143.218628"},{"name":"Valdez-Cordova","lat":"61.349840","lng":"-145.023141"},{"name":"Wade Hampton","lat":"62.283174","lng":"-163.190950"},{"name":"Wrangell","lat":"56.279121","lng":"-132.040326"},{"name":"Yakutat","lat":"59.999083","lng":"-140.239593"},{"name":"Yukon-Koyukuk","lat":"65.376131","lng":"-151.576855"}],"AZ":[{"name":"Apache","lat":"35.385845","lng":"-109.493747"},{"name":"Cochise","lat":"31.881793","lng":"-109.754120"},{"name":"Coconino","lat":"35.829692","lng":"-111.773728"},{"name":"Gila","lat":"33.789618","lng":"-110.811870"},{"name":"Graham","lat":"32.931828","lng":"-109.878310"},{"name":"Greenlee","lat":"33.238872","lng":"-109.242323"},{"name":"La Paz","lat":"33.727625","lng":"-114.038793"},{"name":"Maricopa","lat":"33.346541","lng":"-112.495534"},{"name":"Mohave","lat":"35.717705","lng":"-113.749689"},{"name":"Navajo","lat":"35.390934","lng":"-110.320908"},{"name":"Pima","lat":"32.128237","lng":"-111.783018"},{"name":"Pinal","lat":"32.918910","lng":"-111.367257"},{"name":"Santa Cruz","lat":"31.525904","lng":"-110.845190"},{"name":"Yavapai","lat":"34.630044","lng":"-112.573745"},{"name":"Yuma","lat":"32.773942","lng":"-113.910905"}],"AR":[{"name":"Arkansas","lat":"34.289574","lng":"-91.376547"},{"name":"Ashley","lat":"33.190835","lng":"-91.772267"},{"name":"Baxter","lat":"36.280710","lng":"-92.330438"},{"name":"Benton","lat":"36.337825","lng":"-94.256187"},{"name":"Boone","lat":"36.304308","lng":"-93.079204"},{"name":"Bradley","lat":"33.463819","lng":"-92.168164"},{"name":"Calhoun","lat":"33.560460","lng":"-92.513879"},{"name":"Carroll","lat":"36.337774","lng":"-93.541663"},{"name":"Chicot","lat":"33.267139","lng":"-91.297158"},{"name":"Clark","lat":"34.053312","lng":"-93.176205"},{"name":"Clay","lat":"36.367302","lng":"-90.418704"},{"name":"Cleburne","lat":"35.566288","lng":"-92.059974"},{"name":"Cleveland","lat":"33.893201","lng":"-92.188714"},{"name":"Columbia","lat":"33.215070","lng":"-93.226901"},{"name":"Conway","lat":"35.265702","lng":"-92.689248"},{"name":"Craighead","lat":"35.828268","lng":"-90.630411"},{"name":"Crawford","lat":"35.583041","lng":"-94.236224"},{"name":"Crittenden","lat":"35.211878","lng":"-90.315331"},{"name":"Cross","lat":"35.291259","lng":"-90.773894"},{"name":"Dallas","lat":"33.967823","lng":"-92.653999"},{"name":"Desha","lat":"33.828748","lng":"-91.244427"},{"name":"Drew","lat":"33.587242","lng":"-91.722778"},{"name":"Faulkner","lat":"35.146356","lng":"-92.324654"},{"name":"Franklin","lat":"35.508573","lng":"-93.887672"},{"name":"Fulton","lat":"36.383443","lng":"-91.819239"},{"name":"Garland","lat":"34.578861","lng":"-93.146915"},{"name":"Grant","lat":"34.288063","lng":"-92.423984"},{"name":"Greene","lat":"36.119922","lng":"-90.565241"},{"name":"Hempstead","lat":"33.728611","lng":"-93.665809"},{"name":"Hot Spring","lat":"34.315177","lng":"-92.944147"},{"name":"Howard","lat":"34.083179","lng":"-93.990988"},{"name":"Independence","lat":"35.737499","lng":"-91.559942"},{"name":"Izard","lat":"36.094879","lng":"-91.913625"},{"name":"Jackson","lat":"35.596605","lng":"-91.223178"},{"name":"Jefferson","lat":"34.277696","lng":"-91.930701"},{"name":"Johnson","lat":"35.573359","lng":"-93.466322"},{"name":"Lafayette","lat":"33.240660","lng":"-93.611643"},{"name":"Lawrence","lat":"36.041098","lng":"-91.101153"},{"name":"Lee","lat":"34.779750","lng":"-90.779288"},{"name":"Lincoln","lat":"33.957665","lng":"-91.727624"},{"name":"Little River","lat":"33.699497","lng":"-94.229774"},{"name":"Logan","lat":"35.218550","lng":"-93.720563"},{"name":"Lonoke","lat":"34.755114","lng":"-91.894132"},{"name":"Madison","lat":"36.012545","lng":"-93.724053"},{"name":"Marion","lat":"36.266656","lng":"-92.678588"},{"name":"Miller","lat":"33.305505","lng":"-93.901509"},{"name":"Mississippi","lat":"35.766943","lng":"-90.052209"},{"name":"Monroe","lat":"34.679513","lng":"-91.203314"},{"name":"Montgomery","lat":"34.545652","lng":"-93.664147"},{"name":"Nevada","lat":"33.666699","lng":"-93.305072"},{"name":"Newton","lat":"35.910063","lng":"-93.215084"},{"name":"Ouachita","lat":"33.591158","lng":"-92.878418"},{"name":"Perry","lat":"34.946363","lng":"-92.926877"},{"name":"Phillips","lat":"34.425842","lng":"-90.848386"},{"name":"Pike","lat":"34.158191","lng":"-93.658659"},{"name":"Poinsett","lat":"35.568981","lng":"-90.680595"},{"name":"Polk","lat":"34.490915","lng":"-94.230884"},{"name":"Pope","lat":"35.455297","lng":"-93.031535"},{"name":"Prairie","lat":"34.828225","lng":"-91.557200"},{"name":"Pulaski","lat":"34.773988","lng":"-92.316515"},{"name":"Randolph","lat":"36.341299","lng":"-91.028441"},{"name":"St. Francis","lat":"35.014438","lng":"-90.742199"},{"name":"Saline","lat":"34.648525","lng":"-92.674463"},{"name":"Scott","lat":"34.858869","lng":"-94.063641"},{"name":"Searcy","lat":"35.909660","lng":"-92.699351"},{"name":"Sebastian","lat":"35.196981","lng":"-94.274989"},{"name":"Sevier","lat":"33.994608","lng":"-94.243290"},{"name":"Sharp","lat":"36.173399","lng":"-91.471069"},{"name":"Stone","lat":"35.856989","lng":"-92.140494"},{"name":"Union","lat":"33.168219","lng":"-92.598145"},{"name":"Van Buren","lat":"35.582959","lng":"-92.515977"},{"name":"Washington","lat":"35.971209","lng":"-94.218417"},{"name":"White","lat":"35.254722","lng":"-91.753158"},{"name":"Woodruff","lat":"35.189071","lng":"-91.244418"},{"name":"Yell","lat":"34.997713","lng":"-93.408303"}],"CA":[{"name":"Alameda","lat":"37.648081","lng":"-121.913304"},{"name":"Alpine","lat":"38.617610","lng":"-119.798999"},{"name":"Amador","lat":"38.443550","lng":"-120.653856"},{"name":"Butte","lat":"39.665959","lng":"-121.601919"},{"name":"Calaveras","lat":"38.187844","lng":"-120.555115"},{"name":"Colusa","lat":"39.177739","lng":"-122.237563"},{"name":"Contra Costa","lat":"37.919479","lng":"-121.951543"},{"name":"Del Norte","lat":"41.749903","lng":"-123.980998"},{"name":"El Dorado","lat":"38.785532","lng":"-120.534398"},{"name":"Fresno","lat":"36.761006","lng":"-119.655019"},{"name":"Glenn","lat":"39.602546","lng":"-122.401700"},{"name":"Humboldt","lat":"40.706673","lng":"-123.925818"},{"name":"Imperial","lat":"33.040816","lng":"-115.355395"},{"name":"Inyo","lat":"36.561977","lng":"-117.403927"},{"name":"Kern","lat":"35.346629","lng":"-118.729506"},{"name":"Kings","lat":"36.072478","lng":"-119.815530"},{"name":"Lake","lat":"39.094802","lng":"-122.746757"},{"name":"Lassen","lat":"40.721089","lng":"-120.629931"},{"name":"Los Angeles","lat":"34.196398","lng":"-118.261862"},{"name":"Madera","lat":"37.210039","lng":"-119.749852"},{"name":"Marin","lat":"38.051817","lng":"-122.745974"},{"name":"Mariposa","lat":"37.570034","lng":"-119.912860"},{"name":"Mendocino","lat":"39.432388","lng":"-123.442881"},{"name":"Merced","lat":"37.194806","lng":"-120.722802"},{"name":"Modoc","lat":"41.592919","lng":"-120.718370"},{"name":"Mono","lat":"37.915836","lng":"-118.875167"},{"name":"Monterey","lat":"36.240107","lng":"-121.315573"},{"name":"Napa","lat":"38.507351","lng":"-122.325995"},{"name":"Nevada","lat":"39.295191","lng":"-120.773446"},{"name":"Orange","lat":"33.675687","lng":"-117.777207"},{"name":"Placer","lat":"39.062032","lng":"-120.722718"},{"name":"Plumas","lat":"39.995170","lng":"-120.829516"},{"name":"Riverside","lat":"33.729828","lng":"-116.002239"},{"name":"Sacramento","lat":"38.450011","lng":"-121.340441"},{"name":"San Benito","lat":"36.610702","lng":"-121.085296"},{"name":"San Bernardino","lat":"34.857220","lng":"-116.181197"},{"name":"San Diego","lat":"33.023604","lng":"-116.776117"},{"name":"San Francisco","lat":"37.727239","lng":"-123.032229"},{"name":"San Joaquin","lat":"37.935034","lng":"-121.272237"},{"name":"San Luis Obispo","lat":"35.385227","lng":"-120.447540"},{"name":"San Mateo","lat":"37.414664","lng":"-122.371542"},{"name":"Santa Barbara","lat":"34.537378","lng":"-120.038485"},{"name":"Santa Clara","lat":"37.220777","lng":"-121.690622"},{"name":"Santa Cruz","lat":"37.012488","lng":"-122.007205"},{"name":"Shasta","lat":"40.760522","lng":"-122.043550"},{"name":"Sierra","lat":"39.576925","lng":"-120.521993"},{"name":"Siskiyou","lat":"41.587986","lng":"-122.533287"},{"name":"Solano","lat":"38.267226","lng":"-121.939594"},{"name":"Sonoma","lat":"38.532574","lng":"-122.945194"},{"name":"Stanislaus","lat":"37.562384","lng":"-121.002656"},{"name":"Sutter","lat":"39.035257","lng":"-121.702758"},{"name":"Tehama","lat":"40.126156","lng":"-122.232276"},{"name":"Trinity","lat":"40.647724","lng":"-123.114404"},{"name":"Tulare","lat":"36.230453","lng":"-118.780542"},{"name":"Tuolumne","lat":"38.021451","lng":"-119.964708"},{"name":"Ventura","lat":"34.358742","lng":"-119.133143"},{"name":"Yolo","lat":"38.679268","lng":"-121.903178"},{"name":"Yuba","lat":"39.270026","lng":"-121.344280"}],"CO":[{"name":"Adams","lat":"39.874325","lng":"-104.331872"},{"name":"Alamosa","lat":"37.568442","lng":"-105.788041"},{"name":"Arapahoe","lat":"39.644632","lng":"-104.331733"},{"name":"Archuleta","lat":"37.202395","lng":"-107.050863"},{"name":"Baca","lat":"37.303144","lng":"-102.535457"},{"name":"Bent","lat":"37.931891","lng":"-103.077584"},{"name":"Boulder","lat":"40.094826","lng":"-105.398382"},{"name":"Broomfield","lat":"39.953383","lng":"-105.052125"},{"name":"Chaffee","lat":"38.738246","lng":"-106.316972"},{"name":"Cheyenne","lat":"38.835387","lng":"-102.604585"},{"name":"Clear Creek","lat":"39.689403","lng":"-105.670791"},{"name":"Conejos","lat":"37.213407","lng":"-106.176447"},{"name":"Costilla","lat":"37.277547","lng":"-105.428940"},{"name":"Crowley","lat":"38.321956","lng":"-103.787562"},{"name":"Custer","lat":"38.101994","lng":"-105.373515"},{"name":"Delta","lat":"38.861756","lng":"-107.864757"},{"name":"Denver","lat":"39.761849","lng":"-104.880625"},{"name":"Dolores","lat":"37.747602","lng":"-108.530383"},{"name":"Douglas","lat":"39.326435","lng":"-104.926199"},{"name":"Eagle","lat":"39.630638","lng":"-106.692944"},{"name":"Elbert","lat":"39.310817","lng":"-104.117928"},{"name":"El Paso","lat":"38.827383","lng":"-104.527472"},{"name":"Fremont","lat":"38.455658","lng":"-105.421438"},{"name":"Garfield","lat":"39.599352","lng":"-107.909780"},{"name":"Gilpin","lat":"39.861082","lng":"-105.528947"},{"name":"Grand","lat":"40.123289","lng":"-106.095876"},{"name":"Gunnison","lat":"38.669679","lng":"-107.078108"},{"name":"Hinsdale","lat":"37.811625","lng":"-107.383405"},{"name":"Huerfano","lat":"37.687815","lng":"-104.959928"},{"name":"Jackson","lat":"40.663432","lng":"-106.329248"},{"name":"Jefferson","lat":"39.586460","lng":"-105.245601"},{"name":"Kiowa","lat":"38.388466","lng":"-102.756210"},{"name":"Kit Carson","lat":"39.305340","lng":"-102.603023"},{"name":"Lake","lat":"39.204316","lng":"-106.349696"},{"name":"La Plata","lat":"37.287367","lng":"-107.839718"},{"name":"Larimer","lat":"40.663091","lng":"-105.482131"},{"name":"Las Animas","lat":"37.318831","lng":"-104.044110"},{"name":"Lincoln","lat":"38.993740","lng":"-103.507555"},{"name":"Logan","lat":"40.728091","lng":"-103.090464"},{"name":"Mesa","lat":"39.019492","lng":"-108.461837"},{"name":"Mineral","lat":"37.651478","lng":"-106.932300"},{"name":"Moffat","lat":"40.573984","lng":"-108.204521"},{"name":"Montezuma","lat":"37.338025","lng":"-108.595786"},{"name":"Montrose","lat":"38.413427","lng":"-108.263042"},{"name":"Morgan","lat":"40.262354","lng":"-103.807092"},{"name":"Otero","lat":"37.884170","lng":"-103.721260"},{"name":"Ouray","lat":"38.150600","lng":"-107.767133"},{"name":"Park","lat":"39.118914","lng":"-105.717648"},{"name":"Phillips","lat":"40.594712","lng":"-102.345105"},{"name":"Pitkin","lat":"39.217533","lng":"-106.915943"},{"name":"Prowers","lat":"37.958181","lng":"-102.392161"},{"name":"Pueblo","lat":"38.170658","lng":"-104.489893"},{"name":"Rio Blanco","lat":"39.972606","lng":"-108.200685"},{"name":"Rio Grande","lat":"37.485763","lng":"-106.453214"},{"name":"Routt","lat":"40.483160","lng":"-106.985289"},{"name":"Saguache","lat":"38.033952","lng":"-106.246675"},{"name":"San Juan","lat":"37.781075","lng":"-107.670257"},{"name":"San Miguel","lat":"38.009374","lng":"-108.427326"},{"name":"Sedgwick","lat":"40.871568","lng":"-102.355358"},{"name":"Summit","lat":"39.621023","lng":"-106.137555"},{"name":"Teller","lat":"38.871994","lng":"-105.182552"},{"name":"Washington","lat":"39.965413","lng":"-103.209605"},{"name":"Weld","lat":"40.555794","lng":"-104.383649"},{"name":"Yuma","lat":"40.000631","lng":"-102.422649"}],"CT":[{"name":"Fairfield","lat":"41.228103","lng":"-73.366757"},{"name":"Hartford","lat":"41.806053","lng":"-72.732916"},{"name":"Litchfield","lat":"41.791897","lng":"-73.235428"},{"name":"Middlesex","lat":"41.434525","lng":"-72.524227"},{"name":"New Haven","lat":"41.349717","lng":"-72.900204"},{"name":"New London","lat":"41.478630","lng":"-72.103452"},{"name":"Tolland","lat":"41.858076","lng":"-72.340977"},{"name":"Windham","lat":"41.824999","lng":"-71.990702"}],"DE":[{"name":"Kent","lat":"39.097088","lng":"-75.502982"},{"name":"New Castle","lat":"39.575915","lng":"-75.644132"},{"name":"Sussex","lat":"38.677511","lng":"-75.335495"}],"DC":[{"name":"District of Columbia","lat":"38.904149","lng":"-77.017094"}],"FL":[{"name":"Alachua","lat":"29.675740","lng":"-82.357221"},{"name":"Baker","lat":"30.324442","lng":"-82.302284"},{"name":"Bay","lat":"30.237563","lng":"-85.631348"},{"name":"Bradford","lat":"29.946934","lng":"-82.166796"},{"name":"Brevard","lat":"28.298276","lng":"-80.700384"},{"name":"Broward","lat":"26.193520","lng":"-80.476658"},{"name":"Calhoun","lat":"30.388801","lng":"-85.197916"},{"name":"Charlotte","lat":"26.868826","lng":"-81.940858"},{"name":"Citrus","lat":"28.843628","lng":"-82.524796"},{"name":"Clay","lat":"29.987116","lng":"-81.858147"},{"name":"Collier","lat":"26.118713","lng":"-81.400884"},{"name":"Columbia","lat":"30.221305","lng":"-82.623127"},{"name":"DeSoto","lat":"27.190581","lng":"-81.806253"},{"name":"Dixie","lat":"29.580899","lng":"-83.195666"},{"name":"Duval","lat":"30.335245","lng":"-81.648113"},{"name":"Escambia","lat":"30.611664","lng":"-87.339040"},{"name":"Flagler","lat":"29.474894","lng":"-81.286362"},{"name":"Franklin","lat":"29.810176","lng":"-84.799174"},{"name":"Gadsden","lat":"30.579170","lng":"-84.612783"},{"name":"Gilchrist","lat":"29.723456","lng":"-82.795801"},{"name":"Glades","lat":"26.954810","lng":"-81.190820"},{"name":"Gulf","lat":"29.907257","lng":"-85.256537"},{"name":"Hamilton","lat":"30.491102","lng":"-82.951049"},{"name":"Hardee","lat":"27.492846","lng":"-81.821580"},{"name":"Hendry","lat":"26.539340","lng":"-81.151584"},{"name":"Hernando","lat":"28.567911","lng":"-82.464835"},{"name":"Highlands","lat":"27.342627","lng":"-81.340921"},{"name":"Hillsborough","lat":"27.906590","lng":"-82.349568"},{"name":"Holmes","lat":"30.866222","lng":"-85.812959"},{"name":"Indian River","lat":"27.700638","lng":"-80.574803"},{"name":"Jackson","lat":"30.787812","lng":"-85.210374"},{"name":"Jefferson","lat":"30.424558","lng":"-83.890859"},{"name":"Lafayette","lat":"29.990066","lng":"-83.178510"},{"name":"Lake","lat":"28.764113","lng":"-81.712282"},{"name":"Lee","lat":"26.552134","lng":"-81.892250"},{"name":"Leon","lat":"30.459310","lng":"-84.277800"},{"name":"Levy","lat":"29.284409","lng":"-82.783483"},{"name":"Liberty","lat":"30.259849","lng":"-84.868581"},{"name":"Madison","lat":"30.447228","lng":"-83.470437"},{"name":"Manatee","lat":"27.481386","lng":"-82.365784"},{"name":"Marion","lat":"29.202805","lng":"-82.043100"},{"name":"Martin","lat":"27.079954","lng":"-80.398211"},{"name":"Miami-Dade","lat":"25.610494","lng":"-80.499045"},{"name":"Monroe","lat":"25.601043","lng":"-81.206777"},{"name":"Nassau","lat":"30.605926","lng":"-81.764929"},{"name":"Okaloosa","lat":"30.665858","lng":"-86.594194"},{"name":"Okeechobee","lat":"27.385592","lng":"-80.887388"},{"name":"Orange","lat":"28.514435","lng":"-81.323295"},{"name":"Osceola","lat":"28.059027","lng":"-81.139312"},{"name":"Palm Beach","lat":"26.645763","lng":"-80.448673"},{"name":"Pasco","lat":"28.302024","lng":"-82.455707"},{"name":"Pinellas","lat":"27.903122","lng":"-82.739518"},{"name":"Polk","lat":"27.953115","lng":"-81.692783"},{"name":"Putnam","lat":"29.606006","lng":"-81.740894"},{"name":"St. Johns","lat":"29.890593","lng":"-81.383914"},{"name":"St. Lucie","lat":"27.380775","lng":"-80.443364"},{"name":"Santa Rosa","lat":"30.703633","lng":"-87.014255"},{"name":"Sarasota","lat":"27.184386","lng":"-82.365835"},{"name":"Seminole","lat":"28.690079","lng":"-81.131980"},{"name":"Sumter","lat":"28.714294","lng":"-82.074715"},{"name":"Suwannee","lat":"30.189244","lng":"-82.992754"},{"name":"Taylor","lat":"30.016943","lng":"-83.616417"},{"name":"Union","lat":"30.054280","lng":"-82.366918"},{"name":"Volusia","lat":"29.057617","lng":"-81.161813"},{"name":"Wakulla","lat":"30.140378","lng":"-84.375136"},{"name":"Walton","lat":"30.631211","lng":"-86.176614"},{"name":"Washington","lat":"30.602217","lng":"-85.662797"}],"GA":[{"name":"Appling","lat":"31.739712","lng":"-82.290103"},{"name":"Atkinson","lat":"31.300562","lng":"-82.883614"},{"name":"Bacon","lat":"31.563327","lng":"-82.387859"},{"name":"Baker","lat":"31.319622","lng":"-84.454857"},{"name":"Baldwin","lat":"33.059532","lng":"-83.255362"},{"name":"Banks","lat":"34.351922","lng":"-83.498441"},{"name":"Barrow","lat":"33.992009","lng":"-83.712303"},{"name":"Bartow","lat":"34.240918","lng":"-84.838188"},{"name":"Ben Hill","lat":"31.740776","lng":"-83.147190"},{"name":"Berrien","lat":"31.274308","lng":"-83.231906"},{"name":"Bibb","lat":"32.808844","lng":"-83.694193"},{"name":"Bleckley","lat":"32.435403","lng":"-83.331717"},{"name":"Brantley","lat":"31.197334","lng":"-81.982978"},{"name":"Brooks","lat":"30.833696","lng":"-83.588971"},{"name":"Bryan","lat":"32.017969","lng":"-81.438543"},{"name":"Bulloch","lat":"32.393408","lng":"-81.743810"},{"name":"Burke","lat":"33.063737","lng":"-82.003890"},{"name":"Butts","lat":"33.290355","lng":"-83.958221"},{"name":"Calhoun","lat":"31.521279","lng":"-84.626290"},{"name":"Camden","lat":"30.916358","lng":"-81.636516"},{"name":"Candler","lat":"32.403986","lng":"-82.071446"},{"name":"Carroll","lat":"33.582237","lng":"-85.080527"},{"name":"Catoosa","lat":"34.899393","lng":"-85.137353"},{"name":"Charlton","lat":"30.779904","lng":"-82.139644"},{"name":"Chatham","lat":"31.974756","lng":"-81.091768"},{"name":"Chattahoochee","lat":"32.347445","lng":"-84.788021"},{"name":"Chattooga","lat":"34.474179","lng":"-85.345289"},{"name":"Cherokee","lat":"34.244317","lng":"-84.475057"},{"name":"Clarke","lat":"33.952234","lng":"-83.367130"},{"name":"Clay","lat":"31.619831","lng":"-84.992583"},{"name":"Clayton","lat":"33.552242","lng":"-84.412977"},{"name":"Clinch","lat":"30.917653","lng":"-82.702614"},{"name":"Cobb","lat":"33.939940","lng":"-84.574166"},{"name":"Coffee","lat":"31.549245","lng":"-82.844938"},{"name":"Colquitt","lat":"31.189758","lng":"-83.769741"},{"name":"Columbia","lat":"33.550556","lng":"-82.251342"},{"name":"Cook","lat":"31.152935","lng":"-83.429552"},{"name":"Coweta","lat":"33.352897","lng":"-84.762138"},{"name":"Crawford","lat":"32.709446","lng":"-83.979182"},{"name":"Crisp","lat":"31.914753","lng":"-83.753338"},{"name":"Dade","lat":"34.852424","lng":"-85.506201"},{"name":"Dawson","lat":"34.442842","lng":"-84.173284"},{"name":"Decatur","lat":"30.877961","lng":"-84.577744"},{"name":"DeKalb","lat":"33.770661","lng":"-84.226343"},{"name":"Dodge","lat":"32.160656","lng":"-83.156818"},{"name":"Dooly","lat":"32.151995","lng":"-83.807167"},{"name":"Dougherty","lat":"31.535068","lng":"-84.214444"},{"name":"Douglas","lat":"33.699317","lng":"-84.765944"},{"name":"Early","lat":"31.324191","lng":"-84.906723"},{"name":"Echols","lat":"30.708500","lng":"-82.836132"},{"name":"Effingham","lat":"32.361711","lng":"-81.343337"},{"name":"Elbert","lat":"34.115017","lng":"-82.842057"},{"name":"Emanuel","lat":"32.591100","lng":"-82.299763"},{"name":"Evans","lat":"32.151902","lng":"-81.887618"},{"name":"Fannin","lat":"34.863837","lng":"-84.319287"},{"name":"Fayette","lat":"33.412717","lng":"-84.493941"},{"name":"Floyd","lat":"34.263677","lng":"-85.213730"},{"name":"Forsyth","lat":"34.225143","lng":"-84.127336"},{"name":"Franklin","lat":"34.375155","lng":"-83.227291"},{"name":"Fulton","lat":"33.790034","lng":"-84.468182"},{"name":"Gilmer","lat":"34.690541","lng":"-84.453984"},{"name":"Glascock","lat":"33.227491","lng":"-82.606913"},{"name":"Glynn","lat":"31.212747","lng":"-81.496517"},{"name":"Gordon","lat":"34.509667","lng":"-84.873862"},{"name":"Grady","lat":"30.875863","lng":"-84.244772"},{"name":"Greene","lat":"33.576836","lng":"-83.167103"},{"name":"Gwinnett","lat":"33.959101","lng":"-84.022938"},{"name":"Habersham","lat":"34.635108","lng":"-83.526406"},{"name":"Hall","lat":"34.317588","lng":"-83.818497"},{"name":"Hancock","lat":"33.269220","lng":"-83.000465"},{"name":"Haralson","lat":"33.795165","lng":"-85.220062"},{"name":"Harris","lat":"32.731549","lng":"-84.912432"},{"name":"Hart","lat":"34.348733","lng":"-82.963290"},{"name":"Heard","lat":"33.290968","lng":"-85.139594"},{"name":"Henry","lat":"33.452881","lng":"-84.154440"},{"name":"Houston","lat":"32.458381","lng":"-83.662856"},{"name":"Irwin","lat":"31.604306","lng":"-83.277037"},{"name":"Jackson","lat":"34.134157","lng":"-83.565133"},{"name":"Jasper","lat":"33.314905","lng":"-83.687892"},{"name":"Jeff Davis","lat":"31.811615","lng":"-82.636825"},{"name":"Jefferson","lat":"33.051874","lng":"-82.419050"},{"name":"Jenkins","lat":"32.794563","lng":"-81.971524"},{"name":"Johnson","lat":"32.689831","lng":"-82.661354"},{"name":"Jones","lat":"33.020226","lng":"-83.562339"},{"name":"Lamar","lat":"33.074460","lng":"-84.146721"},{"name":"Lanier","lat":"31.038197","lng":"-83.063164"},{"name":"Laurens","lat":"32.393220","lng":"-82.926317"},{"name":"Lee","lat":"31.818419","lng":"-84.146681"},{"name":"Liberty","lat":"31.807245","lng":"-81.457969"},{"name":"Lincoln","lat":"33.792151","lng":"-82.448299"},{"name":"Long","lat":"31.749563","lng":"-81.742870"},{"name":"Lowndes","lat":"30.833680","lng":"-83.268967"},{"name":"Lumpkin","lat":"34.568149","lng":"-83.998828"},{"name":"McDuffie","lat":"33.482464","lng":"-82.473188"},{"name":"McIntosh","lat":"31.482978","lng":"-81.370199"},{"name":"Macon","lat":"32.366216","lng":"-84.052162"},{"name":"Madison","lat":"34.128486","lng":"-83.203637"},{"name":"Marion","lat":"32.359538","lng":"-84.529561"},{"name":"Meriwether","lat":"33.030220","lng":"-84.663279"},{"name":"Miller","lat":"31.162908","lng":"-84.730386"},{"name":"Mitchell","lat":"31.228940","lng":"-84.192407"},{"name":"Monroe","lat":"33.017435","lng":"-83.922938"},{"name":"Montgomery","lat":"32.172108","lng":"-82.533349"},{"name":"Morgan","lat":"33.593732","lng":"-83.492324"},{"name":"Murray","lat":"34.797097","lng":"-84.737990"},{"name":"Muscogee","lat":"32.510197","lng":"-84.874946"},{"name":"Newton","lat":"33.544046","lng":"-83.855189"},{"name":"Oconee","lat":"33.834125","lng":"-83.437728"},{"name":"Oglethorpe","lat":"33.866806","lng":"-83.074081"},{"name":"Paulding","lat":"33.920903","lng":"-84.866979"},{"name":"Peach","lat":"32.571324","lng":"-83.831978"},{"name":"Pickens","lat":"34.456621","lng":"-84.490256"},{"name":"Pierce","lat":"31.353988","lng":"-82.210427"},{"name":"Pike","lat":"33.090769","lng":"-84.386627"},{"name":"Polk","lat":"33.995961","lng":"-85.186826"},{"name":"Pulaski","lat":"32.238794","lng":"-83.481855"},{"name":"Putnam","lat":"33.321061","lng":"-83.371790"},{"name":"Quitman","lat":"31.861487","lng":"-85.009317"},{"name":"Rabun","lat":"34.883026","lng":"-83.404735"},{"name":"Randolph","lat":"31.762651","lng":"-84.752311"},{"name":"Richmond","lat":"33.361487","lng":"-82.074998"},{"name":"Rockdale","lat":"33.652081","lng":"-84.026370"},{"name":"Schley","lat":"32.263441","lng":"-84.322724"},{"name":"Screven","lat":"32.744751","lng":"-81.617585"},{"name":"Seminole","lat":"30.933894","lng":"-84.867592"},{"name":"Spalding","lat":"33.262389","lng":"-84.286067"},{"name":"Stephens","lat":"34.552914","lng":"-83.290216"},{"name":"Stewart","lat":"32.073225","lng":"-84.834912"},{"name":"Sumter","lat":"32.042203","lng":"-84.204283"},{"name":"Talbot","lat":"32.704603","lng":"-84.530029"},{"name":"Taliaferro","lat":"33.559314","lng":"-82.875208"},{"name":"Tattnall","lat":"32.043768","lng":"-82.059208"},{"name":"Taylor","lat":"32.554667","lng":"-84.251426"},{"name":"Telfair","lat":"31.913639","lng":"-82.931062"},{"name":"Terrell","lat":"31.777191","lng":"-84.439446"},{"name":"Thomas","lat":"30.864616","lng":"-83.919783"},{"name":"Tift","lat":"31.457003","lng":"-83.525931"},{"name":"Toombs","lat":"32.126698","lng":"-82.332071"},{"name":"Towns","lat":"34.902650","lng":"-83.732158"},{"name":"Treutlen","lat":"32.409586","lng":"-82.570882"},{"name":"Troup","lat":"33.034482","lng":"-85.028360"},{"name":"Turner","lat":"31.718232","lng":"-83.628567"},{"name":"Twiggs","lat":"32.665847","lng":"-83.425879"},{"name":"Union","lat":"34.833770","lng":"-83.989573"},{"name":"Upson","lat":"32.881837","lng":"-84.292281"},{"name":"Walker","lat":"34.735827","lng":"-85.305385"},{"name":"Walton","lat":"33.782649","lng":"-83.734215"},{"name":"Ware","lat":"31.050881","lng":"-82.421507"},{"name":"Warren","lat":"33.419169","lng":"-82.688012"},{"name":"Washington","lat":"32.971848","lng":"-82.798112"},{"name":"Wayne","lat":"31.547845","lng":"-81.912376"},{"name":"Webster","lat":"32.046554","lng":"-84.553218"},{"name":"Wheeler","lat":"32.109276","lng":"-82.738701"},{"name":"White","lat":"34.643677","lng":"-83.743713"},{"name":"Whitfield","lat":"34.801726","lng":"-84.968541"},{"name":"Wilcox","lat":"31.962717","lng":"-83.438262"},{"name":"Wilkes","lat":"33.779040","lng":"-82.747922"},{"name":"Wilkinson","lat":"32.804321","lng":"-83.175587"},{"name":"Worth","lat":"31.551773","lng":"-83.849960"}],"HI":[{"name":"Hawaiʻi","lat":"19.597764","lng":"-155.502443"},{"name":"Honolulu","lat":"21.461364","lng":"-158.201976"},{"name":"Kalawao","lat":"21.218764","lng":"-156.974010"},{"name":"Kauaʻi","lat":"22.012038","lng":"-159.705965"},{"name":"Maui","lat":"20.855931","lng":"-156.601550"}],"ID":[{"name":"Ada","lat":"43.447861","lng":"-116.244456"},{"name":"Adams","lat":"44.884583","lng":"-116.431873"},{"name":"Bannock","lat":"42.692939","lng":"-112.228986"},{"name":"Bear Lake","lat":"42.285833","lng":"-111.327445"},{"name":"Benewah","lat":"47.218451","lng":"-116.633541"},{"name":"Bingham","lat":"43.216357","lng":"-112.399206"},{"name":"Blaine","lat":"43.394482","lng":"-113.955290"},{"name":"Boise","lat":"43.987275","lng":"-115.715111"},{"name":"Bonner","lat":"48.312512","lng":"-116.596940"},{"name":"Bonneville","lat":"43.395171","lng":"-111.621878"},{"name":"Boundary","lat":"48.773065","lng":"-116.524619"},{"name":"Butte","lat":"43.685100","lng":"-113.177627"},{"name":"Camas","lat":"43.463396","lng":"-114.804427"},{"name":"Canyon","lat":"43.623051","lng":"-116.708527"},{"name":"Caribou","lat":"42.786273","lng":"-111.544172"},{"name":"Cassia","lat":"42.288635","lng":"-113.605498"},{"name":"Clark","lat":"44.286251","lng":"-112.361120"},{"name":"Clearwater","lat":"46.672570","lng":"-115.653500"},{"name":"Custer","lat":"44.273341","lng":"-114.252251"},{"name":"Elmore","lat":"43.394826","lng":"-115.470751"},{"name":"Franklin","lat":"42.173589","lng":"-111.822955"},{"name":"Fremont","lat":"44.218091","lng":"-111.484429"},{"name":"Gem","lat":"44.061473","lng":"-116.398784"},{"name":"Gooding","lat":"42.973185","lng":"-114.821420"},{"name":"Idaho","lat":"45.849237","lng":"-115.467376"},{"name":"Jefferson","lat":"43.796965","lng":"-112.318588"},{"name":"Jerome","lat":"42.691172","lng":"-114.263009"},{"name":"Kootenai","lat":"47.677113","lng":"-116.694918"},{"name":"Latah","lat":"46.818920","lng":"-116.730974"},{"name":"Lemhi","lat":"44.928789","lng":"-113.887841"},{"name":"Lewis","lat":"46.236328","lng":"-116.423760"},{"name":"Lincoln","lat":"42.986181","lng":"-114.153899"},{"name":"Madison","lat":"43.789709","lng":"-111.656550"},{"name":"Minidoka","lat":"42.856937","lng":"-113.640010"},{"name":"Nez Perce","lat":"46.333766","lng":"-116.760903"},{"name":"Oneida","lat":"42.183890","lng":"-112.520465"},{"name":"Owyhee","lat":"42.593063","lng":"-116.142655"},{"name":"Payette","lat":"44.002740","lng":"-116.748655"},{"name":"Power","lat":"42.694126","lng":"-112.844407"},{"name":"Shoshone","lat":"47.347694","lng":"-115.885092"},{"name":"Teton","lat":"43.760994","lng":"-111.211765"},{"name":"Twin Falls","lat":"42.352309","lng":"-114.665639"},{"name":"Valley","lat":"44.771532","lng":"-115.637875"},{"name":"Washington","lat":"44.448213","lng":"-116.797830"}],"IL":[{"name":"Adams","lat":"39.986053","lng":"-91.194961"},{"name":"Alexander","lat":"37.183683","lng":"-89.349506"},{"name":"Bond","lat":"38.885924","lng":"-89.436592"},{"name":"Boone","lat":"42.318983","lng":"-88.824295"},{"name":"Brown","lat":"39.962069","lng":"-90.750310"},{"name":"Bureau","lat":"41.401304","lng":"-89.528377"},{"name":"Calhoun","lat":"39.164262","lng":"-90.666295"},{"name":"Carroll","lat":"42.059084","lng":"-89.926485"},{"name":"Cass","lat":"39.969202","lng":"-90.245705"},{"name":"Champaign","lat":"40.139150","lng":"-88.197201"},{"name":"Christian","lat":"39.545524","lng":"-89.279593"},{"name":"Clark","lat":"39.332364","lng":"-87.791687"},{"name":"Clay","lat":"38.747312","lng":"-88.483789"},{"name":"Clinton","lat":"38.606423","lng":"-89.423136"},{"name":"Coles","lat":"39.513680","lng":"-88.220782"},{"name":"Cook","lat":"41.894294","lng":"-87.645455"},{"name":"Crawford","lat":"39.003730","lng":"-87.757172"},{"name":"Cumberland","lat":"39.273121","lng":"-88.240619"},{"name":"DeKalb","lat":"41.894613","lng":"-88.768991"},{"name":"De Witt","lat":"40.181499","lng":"-88.901853"},{"name":"Douglas","lat":"39.766078","lng":"-88.222866"},{"name":"DuPage","lat":"41.852058","lng":"-88.086038"},{"name":"Edgar","lat":"39.679037","lng":"-87.747110"},{"name":"Edwards","lat":"38.417095","lng":"-88.047941"},{"name":"Effingham","lat":"39.047694","lng":"-88.592786"},{"name":"Fayette","lat":"39.001125","lng":"-89.017923"},{"name":"Ford","lat":"40.594423","lng":"-88.224746"},{"name":"Franklin","lat":"37.991848","lng":"-88.926246"},{"name":"Fulton","lat":"40.465688","lng":"-90.206793"},{"name":"Gallatin","lat":"37.768677","lng":"-88.227964"},{"name":"Greene","lat":"39.355444","lng":"-90.387757"},{"name":"Grundy","lat":"41.292410","lng":"-88.401055"},{"name":"Hamilton","lat":"38.085226","lng":"-88.539005"},{"name":"Hancock","lat":"40.405792","lng":"-91.167988"},{"name":"Hardin","lat":"37.517852","lng":"-88.266148"},{"name":"Henderson","lat":"40.815141","lng":"-90.938480"},{"name":"Henry","lat":"41.350021","lng":"-90.130838"},{"name":"Iroquois","lat":"40.748867","lng":"-87.833601"},{"name":"Jackson","lat":"37.786096","lng":"-89.381212"},{"name":"Jasper","lat":"39.004874","lng":"-88.150763"},{"name":"Jefferson","lat":"38.300780","lng":"-88.924210"},{"name":"Jersey","lat":"39.080192","lng":"-90.361365"},{"name":"Jo Daviess","lat":"42.362391","lng":"-90.211471"},{"name":"Johnson","lat":"37.460815","lng":"-88.882962"},{"name":"Kane","lat":"41.939594","lng":"-88.428040"},{"name":"Kankakee","lat":"41.139494","lng":"-87.861125"},{"name":"Kendall","lat":"41.588140","lng":"-88.430626"},{"name":"Knox","lat":"40.930941","lng":"-90.213761"},{"name":"Lake","lat":"42.326444","lng":"-87.436118"},{"name":"La Salle","lat":"41.343341","lng":"-88.885931"},{"name":"Lawrence","lat":"38.718954","lng":"-87.730221"},{"name":"Lee","lat":"41.747442","lng":"-89.299351"},{"name":"Livingston","lat":"40.894376","lng":"-88.552852"},{"name":"Logan","lat":"40.129070","lng":"-89.365308"},{"name":"McDonough","lat":"40.455789","lng":"-90.677579"},{"name":"McHenry","lat":"42.324298","lng":"-88.452245"},{"name":"McLean","lat":"40.494559","lng":"-88.844539"},{"name":"Macon","lat":"39.860237","lng":"-88.961529"},{"name":"Macoupin","lat":"39.265900","lng":"-89.926344"},{"name":"Madison","lat":"38.827082","lng":"-89.900195"},{"name":"Marion","lat":"38.648396","lng":"-88.920221"},{"name":"Marshall","lat":"41.031119","lng":"-89.342371"},{"name":"Mason","lat":"40.236993","lng":"-89.913575"},{"name":"Massac","lat":"37.216119","lng":"-88.705658"},{"name":"Menard","lat":"40.022569","lng":"-89.794133"},{"name":"Mercer","lat":"41.204791","lng":"-90.741433"},{"name":"Monroe","lat":"38.277983","lng":"-90.179078"},{"name":"Montgomery","lat":"39.228092","lng":"-89.478007"},{"name":"Morgan","lat":"39.716806","lng":"-90.202277"},{"name":"Moultrie","lat":"39.636896","lng":"-88.625726"},{"name":"Ogle","lat":"42.041884","lng":"-89.320176"},{"name":"Peoria","lat":"40.785999","lng":"-89.767358"},{"name":"Perry","lat":"38.084385","lng":"-89.368487"},{"name":"Piatt","lat":"40.009056","lng":"-88.592328"},{"name":"Pike","lat":"39.625106","lng":"-90.889034"},{"name":"Pope","lat":"37.417169","lng":"-88.542374"},{"name":"Pulaski","lat":"37.215615","lng":"-89.127755"},{"name":"Putnam","lat":"41.198940","lng":"-89.298386"},{"name":"Randolph","lat":"38.056515","lng":"-89.821210"},{"name":"Richland","lat":"38.711550","lng":"-88.085698"},{"name":"Rock Island","lat":"41.468404","lng":"-90.572203"},{"name":"St. Clair","lat":"38.470198","lng":"-89.928546"},{"name":"Saline","lat":"37.751653","lng":"-88.545031"},{"name":"Sangamon","lat":"39.756378","lng":"-89.662311"},{"name":"Schuyler","lat":"40.156905","lng":"-90.613464"},{"name":"Scott","lat":"39.636980","lng":"-90.477759"},{"name":"Shelby","lat":"39.384926","lng":"-88.798862"},{"name":"Stark","lat":"41.096908","lng":"-89.797411"},{"name":"Stephenson","lat":"42.349726","lng":"-89.665994"},{"name":"Tazewell","lat":"40.508074","lng":"-89.516260"},{"name":"Union","lat":"37.475104","lng":"-89.252875"},{"name":"Vermilion","lat":"40.186740","lng":"-87.726772"},{"name":"Wabash","lat":"38.445821","lng":"-87.839167"},{"name":"Warren","lat":"40.850441","lng":"-90.620223"},{"name":"Washington","lat":"38.353141","lng":"-89.417187"},{"name":"Wayne","lat":"38.431948","lng":"-88.432129"},{"name":"White","lat":"38.087372","lng":"-88.178585"},{"name":"Whiteside","lat":"41.750571","lng":"-89.910957"},{"name":"Will","lat":"41.448474","lng":"-87.978456"},{"name":"Williamson","lat":"37.730353","lng":"-88.930018"},{"name":"Winnebago","lat":"42.337396","lng":"-89.161205"},{"name":"Woodford","lat":"40.789596","lng":"-89.210301"}],"IN":[{"name":"Adams","lat":"40.745733","lng":"-84.936131"},{"name":"Allen","lat":"41.091855","lng":"-85.072230"},{"name":"Bartholomew","lat":"39.205843","lng":"-85.897999"},{"name":"Benton","lat":"40.608253","lng":"-87.315479"},{"name":"Blackford","lat":"40.472672","lng":"-85.323730"},{"name":"Boone","lat":"40.050892","lng":"-86.469014"},{"name":"Brown","lat":"39.192585","lng":"-86.239410"},{"name":"Carroll","lat":"40.584980","lng":"-86.565141"},{"name":"Cass","lat":"40.753799","lng":"-86.355169"},{"name":"Clark","lat":"38.476217","lng":"-85.711122"},{"name":"Clay","lat":"39.393951","lng":"-87.115837"},{"name":"Clinton","lat":"40.305944","lng":"-86.477567"},{"name":"Crawford","lat":"38.289433","lng":"-86.440871"},{"name":"Daviess","lat":"38.696155","lng":"-87.076988"},{"name":"Dearborn","lat":"39.151491","lng":"-84.973460"},{"name":"Decatur","lat":"39.305980","lng":"-85.499831"},{"name":"DeKalb","lat":"41.401189","lng":"-85.000185"},{"name":"Delaware","lat":"40.227165","lng":"-85.398856"},{"name":"Dubois","lat":"38.373344","lng":"-86.873385"},{"name":"Elkhart","lat":"41.600693","lng":"-85.863986"},{"name":"Fayette","lat":"39.639655","lng":"-85.185032"},{"name":"Floyd","lat":"38.317937","lng":"-85.911474"},{"name":"Fountain","lat":"40.121282","lng":"-87.234806"},{"name":"Franklin","lat":"39.409762","lng":"-85.066964"},{"name":"Fulton","lat":"41.050384","lng":"-86.265006"},{"name":"Gibson","lat":"38.317413","lng":"-87.580566"},{"name":"Grant","lat":"40.515758","lng":"-85.654946"},{"name":"Greene","lat":"39.048600","lng":"-87.005245"},{"name":"Hamilton","lat":"40.049870","lng":"-86.020586"},{"name":"Hancock","lat":"39.822604","lng":"-85.772904"},{"name":"Harrison","lat":"38.186440","lng":"-86.103681"},{"name":"Hendricks","lat":"39.768749","lng":"-86.510287"},{"name":"Henry","lat":"39.929576","lng":"-85.397338"},{"name":"Howard","lat":"40.483537","lng":"-86.114118"},{"name":"Huntington","lat":"40.826394","lng":"-85.478598"},{"name":"Jackson","lat":"38.911957","lng":"-86.042516"},{"name":"Jasper","lat":"41.017688","lng":"-87.118814"},{"name":"Jay","lat":"40.434972","lng":"-85.003380"},{"name":"Jefferson","lat":"38.783604","lng":"-85.440090"},{"name":"Jennings","lat":"38.996234","lng":"-85.628111"},{"name":"Johnson","lat":"39.495986","lng":"-86.094600"},{"name":"Knox","lat":"38.688663","lng":"-87.420182"},{"name":"Kosciusko","lat":"41.244293","lng":"-85.861575"},{"name":"LaGrange","lat":"41.642468","lng":"-85.426302"},{"name":"Lake","lat":"41.472239","lng":"-87.374337"},{"name":"LaPorte","lat":"41.549011","lng":"-86.744729"},{"name":"Lawrence","lat":"38.839815","lng":"-86.487820"},{"name":"Madison","lat":"40.166203","lng":"-85.722454"},{"name":"Marion","lat":"39.782976","lng":"-86.135794"},{"name":"Marshall","lat":"41.325003","lng":"-86.269036"},{"name":"Martin","lat":"38.705322","lng":"-86.801847"},{"name":"Miami","lat":"40.772881","lng":"-86.044259"},{"name":"Monroe","lat":"39.160751","lng":"-86.523325"},{"name":"Montgomery","lat":"40.040296","lng":"-86.892715"},{"name":"Morgan","lat":"39.482646","lng":"-86.447457"},{"name":"Newton","lat":"40.962399","lng":"-87.402172"},{"name":"Noble","lat":"41.400794","lng":"-85.417850"},{"name":"Ohio","lat":"38.940527","lng":"-84.964299"},{"name":"Orange","lat":"38.547381","lng":"-86.489257"},{"name":"Owen","lat":"39.317339","lng":"-86.838845"},{"name":"Parke","lat":"39.774250","lng":"-87.196950"},{"name":"Perry","lat":"38.081436","lng":"-86.626540"},{"name":"Pike","lat":"38.397898","lng":"-87.232532"},{"name":"Porter","lat":"41.509922","lng":"-87.071308"},{"name":"Posey","lat":"38.027614","lng":"-87.868653"},{"name":"Pulaski","lat":"41.045272","lng":"-86.692538"},{"name":"Putnam","lat":"39.665545","lng":"-86.853325"},{"name":"Randolph","lat":"40.164414","lng":"-85.005004"},{"name":"Ripley","lat":"39.100230","lng":"-85.260541"},{"name":"Rush","lat":"39.622312","lng":"-85.466527"},{"name":"St. Joseph","lat":"41.617699","lng":"-86.288159"},{"name":"Scott","lat":"38.679431","lng":"-85.751898"},{"name":"Shelby","lat":"39.524135","lng":"-85.792174"},{"name":"Spencer","lat":"38.009789","lng":"-87.010645"},{"name":"Starke","lat":"41.283220","lng":"-86.647570"},{"name":"Steuben","lat":"41.643437","lng":"-85.002467"},{"name":"Sullivan","lat":"39.089225","lng":"-87.415843"},{"name":"Switzerland","lat":"38.825846","lng":"-85.029679"},{"name":"Tippecanoe","lat":"40.389260","lng":"-86.893943"},{"name":"Tipton","lat":"40.310229","lng":"-86.056207"},{"name":"Union","lat":"39.623111","lng":"-84.925152"},{"name":"Vanderburgh","lat":"38.020070","lng":"-87.586166"},{"name":"Vermillion","lat":"39.854045","lng":"-87.462071"},{"name":"Vigo","lat":"39.429143","lng":"-87.390375"},{"name":"Wabash","lat":"40.843717","lng":"-85.795175"},{"name":"Warren","lat":"40.352658","lng":"-87.375847"},{"name":"Warrick","lat":"38.097764","lng":"-87.272023"},{"name":"Washington","lat":"38.600613","lng":"-86.104751"},{"name":"Wayne","lat":"39.863091","lng":"-85.006735"},{"name":"Wells","lat":"40.735273","lng":"-85.212974"},{"name":"White","lat":"40.750950","lng":"-86.864293"},{"name":"Whitley","lat":"41.136426","lng":"-85.501892"}],"IA":[{"name":"Adair","lat":"41.328528","lng":"-94.478164"},{"name":"Adams","lat":"41.021656","lng":"-94.696906"},{"name":"Allamakee","lat":"43.274964","lng":"-91.382751"},{"name":"Appanoose","lat":"40.744683","lng":"-92.870345"},{"name":"Audubon","lat":"41.679178","lng":"-94.904312"},{"name":"Benton","lat":"42.092547","lng":"-92.057630"},{"name":"Black Hawk","lat":"42.472888","lng":"-92.306059"},{"name":"Boone","lat":"42.038601","lng":"-93.939138"},{"name":"Bremer","lat":"42.780890","lng":"-92.327586"},{"name":"Buchanan","lat":"42.470328","lng":"-91.838666"},{"name":"Buena Vista","lat":"42.741522","lng":"-95.141433"},{"name":"Butler","lat":"42.734708","lng":"-92.780066"},{"name":"Calhoun","lat":"42.386170","lng":"-94.643683"},{"name":"Carroll","lat":"42.039492","lng":"-94.867647"},{"name":"Cass","lat":"41.333824","lng":"-94.933302"},{"name":"Cedar","lat":"41.772355","lng":"-91.132190"},{"name":"Cerro Gordo","lat":"43.075171","lng":"-93.251266"},{"name":"Cherokee","lat":"42.742738","lng":"-95.633262"},{"name":"Chickasaw","lat":"43.059741","lng":"-92.317210"},{"name":"Clarke","lat":"41.029191","lng":"-93.784096"},{"name":"Clay","lat":"43.079822","lng":"-95.149726"},{"name":"Clayton","lat":"42.840998","lng":"-91.323511"},{"name":"Clinton","lat":"41.898073","lng":"-90.534243"},{"name":"Crawford","lat":"42.043119","lng":"-95.389090"},{"name":"Dallas","lat":"41.685321","lng":"-94.040707"},{"name":"Davis","lat":"40.748089","lng":"-92.410345"},{"name":"Decatur","lat":"40.736379","lng":"-93.784580"},{"name":"Delaware","lat":"42.473003","lng":"-91.359443"},{"name":"Des Moines","lat":"40.915339","lng":"-91.186925"},{"name":"Dickinson","lat":"43.389611","lng":"-95.196057"},{"name":"Dubuque","lat":"42.463481","lng":"-90.878771"},{"name":"Emmet","lat":"43.377984","lng":"-94.669370"},{"name":"Fayette","lat":"42.864450","lng":"-91.839373"},{"name":"Floyd","lat":"43.052741","lng":"-92.787367"},{"name":"Franklin","lat":"42.736549","lng":"-93.271425"},{"name":"Fremont","lat":"40.743726","lng":"-95.599516"},{"name":"Greene","lat":"42.042494","lng":"-94.388703"},{"name":"Grundy","lat":"42.403323","lng":"-92.790261"},{"name":"Guthrie","lat":"41.683573","lng":"-94.501272"},{"name":"Hamilton","lat":"42.390768","lng":"-93.709198"},{"name":"Hancock","lat":"43.075411","lng":"-93.743697"},{"name":"Hardin","lat":"42.389955","lng":"-93.241081"},{"name":"Harrison","lat":"41.688584","lng":"-95.827149"},{"name":"Henry","lat":"40.985864","lng":"-91.544270"},{"name":"Howard","lat":"43.365313","lng":"-92.321908"},{"name":"Humboldt","lat":"42.782221","lng":"-94.202775"},{"name":"Ida","lat":"42.391860","lng":"-95.507421"},{"name":"Iowa","lat":"41.683918","lng":"-92.059123"},{"name":"Jackson","lat":"42.164281","lng":"-90.574597"},{"name":"Jasper","lat":"41.685686","lng":"-93.052971"},{"name":"Jefferson","lat":"41.006880","lng":"-91.967137"},{"name":"Johnson","lat":"41.668737","lng":"-91.588812"},{"name":"Jones","lat":"42.125118","lng":"-91.116914"},{"name":"Keokuk","lat":"41.331182","lng":"-92.167721"},{"name":"Kossuth","lat":"43.212478","lng":"-94.213983"},{"name":"Lee","lat":"40.647588","lng":"-91.477157"},{"name":"Linn","lat":"42.077951","lng":"-91.597674"},{"name":"Louisa","lat":"41.218211","lng":"-91.256994"},{"name":"Lucas","lat":"41.033344","lng":"-93.331467"},{"name":"Lyon","lat":"43.383580","lng":"-96.207201"},{"name":"Madison","lat":"41.330622","lng":"-94.015184"},{"name":"Mahaska","lat":"41.330797","lng":"-92.636366"},{"name":"Marion","lat":"41.331455","lng":"-93.093849"},{"name":"Marshall","lat":"42.041691","lng":"-92.981452"},{"name":"Mills","lat":"41.033703","lng":"-95.619101"},{"name":"Mitchell","lat":"43.348564","lng":"-92.784466"},{"name":"Monona","lat":"42.049432","lng":"-95.956566"},{"name":"Monroe","lat":"41.028847","lng":"-92.869642"},{"name":"Montgomery","lat":"41.021735","lng":"-95.157790"},{"name":"Muscatine","lat":"41.483776","lng":"-91.118699"},{"name":"O'Brien","lat":"43.083746","lng":"-95.625624"},{"name":"Osceola","lat":"43.378542","lng":"-95.633788"},{"name":"Page","lat":"40.739090","lng":"-95.144290"},{"name":"Palo Alto","lat":"43.075854","lng":"-94.667297"},{"name":"Plymouth","lat":"42.737585","lng":"-96.215864"},{"name":"Pocahontas","lat":"42.734033","lng":"-94.678279"},{"name":"Polk","lat":"41.684281","lng":"-93.569720"},{"name":"Pottawattamie","lat":"41.340184","lng":"-95.544905"},{"name":"Poweshiek","lat":"41.684526","lng":"-92.522882"},{"name":"Ringgold","lat":"40.735334","lng":"-94.244251"},{"name":"Sac","lat":"42.387526","lng":"-95.105224"},{"name":"Scott","lat":"41.641679","lng":"-90.622290"},{"name":"Shelby","lat":"41.679014","lng":"-95.308917"},{"name":"Sioux","lat":"43.082854","lng":"-96.177929"},{"name":"Story","lat":"42.037538","lng":"-93.466093"},{"name":"Tama","lat":"42.074848","lng":"-92.529412"},{"name":"Taylor","lat":"40.737949","lng":"-94.697108"},{"name":"Union","lat":"41.028550","lng":"-94.245091"},{"name":"Van Buren","lat":"40.754117","lng":"-91.952943"},{"name":"Wapello","lat":"41.031263","lng":"-92.409482"},{"name":"Warren","lat":"41.336769","lng":"-93.564366"},{"name":"Washington","lat":"41.329401","lng":"-91.725052"},{"name":"Wayne","lat":"40.739983","lng":"-93.332613"},{"name":"Webster","lat":"42.434397","lng":"-94.179157"},{"name":"Winnebago","lat":"43.378124","lng":"-93.743488"},{"name":"Winneshiek","lat":"43.292989","lng":"-91.850788"},{"name":"Woodbury","lat":"42.393220","lng":"-96.053296"},{"name":"Worth","lat":"43.373491","lng":"-93.248533"},{"name":"Wright","lat":"42.733007","lng":"-93.734735"}],"KS":[{"name":"Allen","lat":"37.884229","lng":"-95.300945"},{"name":"Anderson","lat":"38.215114","lng":"-95.292046"},{"name":"Atchison","lat":"39.532544","lng":"-95.313398"},{"name":"Barber","lat":"37.222906","lng":"-98.685052"},{"name":"Barton","lat":"38.481239","lng":"-98.767837"},{"name":"Bourbon","lat":"37.856100","lng":"-94.850928"},{"name":"Brown","lat":"39.825931","lng":"-95.569905"},{"name":"Butler","lat":"37.773681","lng":"-96.838762"},{"name":"Chase","lat":"38.298553","lng":"-96.594064"},{"name":"Chautauqua","lat":"37.154259","lng":"-96.245396"},{"name":"Cherokee","lat":"37.169392","lng":"-94.845698"},{"name":"Cheyenne","lat":"39.789256","lng":"-101.727302"},{"name":"Clark","lat":"37.233831","lng":"-99.813869"},{"name":"Clay","lat":"39.344964","lng":"-97.168853"},{"name":"Cloud","lat":"39.487329","lng":"-97.641390"},{"name":"Coffey","lat":"38.236450","lng":"-95.729137"},{"name":"Comanche","lat":"37.189071","lng":"-99.254089"},{"name":"Cowley","lat":"37.234507","lng":"-96.837247"},{"name":"Crawford","lat":"37.505628","lng":"-94.853941"},{"name":"Decatur","lat":"39.783542","lng":"-100.459708"},{"name":"Dickinson","lat":"38.867735","lng":"-97.157943"},{"name":"Doniphan","lat":"39.788502","lng":"-95.147225"},{"name":"Douglas","lat":"38.896573","lng":"-95.290529"},{"name":"Edwards","lat":"37.883595","lng":"-99.304746"},{"name":"Elk","lat":"37.456026","lng":"-96.244642"},{"name":"Ellis","lat":"38.914596","lng":"-99.317329"},{"name":"Ellsworth","lat":"38.700845","lng":"-98.205355"},{"name":"Finney","lat":"38.049855","lng":"-100.739929"},{"name":"Ford","lat":"37.688365","lng":"-99.884734"},{"name":"Franklin","lat":"38.558019","lng":"-95.278962"},{"name":"Geary","lat":"39.002155","lng":"-96.768038"},{"name":"Gove","lat":"38.917239","lng":"-100.487360"},{"name":"Graham","lat":"39.349445","lng":"-99.880952"},{"name":"Grant","lat":"37.547537","lng":"-101.299362"},{"name":"Gray","lat":"37.744513","lng":"-100.451716"},{"name":"Greeley","lat":"38.480408","lng":"-101.805984"},{"name":"Greenwood","lat":"37.878659","lng":"-96.242232"},{"name":"Hamilton","lat":"37.995244","lng":"-101.793689"},{"name":"Harper","lat":"37.188184","lng":"-98.066590"},{"name":"Harvey","lat":"38.050144","lng":"-97.436707"},{"name":"Haskell","lat":"37.558550","lng":"-100.876869"},{"name":"Hodgeman","lat":"38.087493","lng":"-99.898407"},{"name":"Jackson","lat":"39.410989","lng":"-95.794509"},{"name":"Jefferson","lat":"39.239644","lng":"-95.375314"},{"name":"Jewell","lat":"39.777010","lng":"-98.222584"},{"name":"Johnson","lat":"38.883907","lng":"-94.822330"},{"name":"Kearny","lat":"37.994461","lng":"-101.308136"},{"name":"Kingman","lat":"37.552951","lng":"-98.144529"},{"name":"Kiowa","lat":"37.561231","lng":"-99.286539"},{"name":"Labette","lat":"37.191468","lng":"-95.297473"},{"name":"Lane","lat":"38.481286","lng":"-100.466185"},{"name":"Leavenworth","lat":"39.189511","lng":"-95.038977"},{"name":"Lincoln","lat":"39.047276","lng":"-98.214265"},{"name":"Linn","lat":"38.216549","lng":"-94.844932"},{"name":"Logan","lat":"38.913270","lng":"-101.157407"},{"name":"Lyon","lat":"38.455498","lng":"-96.161589"},{"name":"McPherson","lat":"38.395812","lng":"-97.647489"},{"name":"Marion","lat":"38.359647","lng":"-97.102771"},{"name":"Marshall","lat":"39.782709","lng":"-96.521243"},{"name":"Meade","lat":"37.243886","lng":"-100.360094"},{"name":"Miami","lat":"38.566772","lng":"-94.832963"},{"name":"Mitchell","lat":"39.393026","lng":"-98.207362"},{"name":"Montgomery","lat":"37.189537","lng":"-95.742403"},{"name":"Morris","lat":"38.687696","lng":"-96.644905"},{"name":"Morton","lat":"37.185250","lng":"-101.809516"},{"name":"Nemaha","lat":"39.791043","lng":"-96.005381"},{"name":"Neosho","lat":"37.564283","lng":"-95.315683"},{"name":"Ness","lat":"38.480437","lng":"-99.908745"},{"name":"Norton","lat":"39.783867","lng":"-99.899235"},{"name":"Osage","lat":"38.649706","lng":"-95.727275"},{"name":"Osborne","lat":"39.348649","lng":"-98.767876"},{"name":"Ottawa","lat":"39.137963","lng":"-97.654803"},{"name":"Pawnee","lat":"38.182873","lng":"-99.232154"},{"name":"Phillips","lat":"39.784506","lng":"-99.342150"},{"name":"Pottawatomie","lat":"39.382187","lng":"-96.337113"},{"name":"Pratt","lat":"37.647594","lng":"-98.740120"},{"name":"Rawlins","lat":"39.786198","lng":"-101.076738"},{"name":"Reno","lat":"37.948185","lng":"-98.078346"},{"name":"Republic","lat":"39.828910","lng":"-97.650921"},{"name":"Rice","lat":"38.347178","lng":"-98.201415"},{"name":"Riley","lat":"39.291211","lng":"-96.727489"},{"name":"Rooks","lat":"39.346006","lng":"-99.324492"},{"name":"Rush","lat":"38.523592","lng":"-99.309183"},{"name":"Russell","lat":"38.916839","lng":"-98.765638"},{"name":"Saline","lat":"38.786327","lng":"-97.650153"},{"name":"Scott","lat":"38.481877","lng":"-100.906360"},{"name":"Sedgwick","lat":"37.683807","lng":"-97.459451"},{"name":"Seward","lat":"37.180585","lng":"-100.854741"},{"name":"Shawnee","lat":"39.041805","lng":"-95.755664"},{"name":"Sheridan","lat":"39.350543","lng":"-100.441206"},{"name":"Sherman","lat":"39.351352","lng":"-101.719859"},{"name":"Smith","lat":"39.784660","lng":"-98.785430"},{"name":"Stafford","lat":"38.035630","lng":"-98.719889"},{"name":"Stanton","lat":"37.565932","lng":"-101.789383"},{"name":"Stevens","lat":"37.202356","lng":"-101.315796"},{"name":"Sumner","lat":"37.236663","lng":"-97.493349"},{"name":"Thomas","lat":"39.357706","lng":"-101.083439"},{"name":"Trego","lat":"38.921302","lng":"-99.865423"},{"name":"Wabaunsee","lat":"38.955154","lng":"-96.201262"},{"name":"Wallace","lat":"38.926626","lng":"-101.771103"},{"name":"Washington","lat":"39.776714","lng":"-97.095611"},{"name":"Wichita","lat":"38.481922","lng":"-101.347434"},{"name":"Wilson","lat":"37.558515","lng":"-95.745175"},{"name":"Woodson","lat":"37.888484","lng":"-95.757553"},{"name":"Wyandotte","lat":"39.115384","lng":"-94.763087"}],"KY":[{"name":"Adair","lat":"37.105541","lng":"-85.281401"},{"name":"Allen","lat":"36.750770","lng":"-86.192458"},{"name":"Anderson","lat":"38.005396","lng":"-84.986417"},{"name":"Ballard","lat":"37.051120","lng":"-89.009178"},{"name":"Barren","lat":"36.963614","lng":"-85.924990"},{"name":"Bath","lat":"38.152249","lng":"-83.737641"},{"name":"Bell","lat":"36.722680","lng":"-83.681046"},{"name":"Boone","lat":"38.974595","lng":"-84.731444"},{"name":"Bourbon","lat":"38.202562","lng":"-84.209860"},{"name":"Boyd","lat":"38.360004","lng":"-82.681406"},{"name":"Boyle","lat":"37.618200","lng":"-84.873016"},{"name":"Bracken","lat":"38.678523","lng":"-84.100355"},{"name":"Breathitt","lat":"37.521178","lng":"-83.322401"},{"name":"Breckinridge","lat":"37.778109","lng":"-86.432829"},{"name":"Bullitt","lat":"37.969572","lng":"-85.703036"},{"name":"Butler","lat":"37.207013","lng":"-86.682471"},{"name":"Caldwell","lat":"37.148643","lng":"-87.870510"},{"name":"Calloway","lat":"36.620978","lng":"-88.274086"},{"name":"Campbell","lat":"38.946981","lng":"-84.379583"},{"name":"Carlisle","lat":"36.857726","lng":"-88.975757"},{"name":"Carroll","lat":"38.668284","lng":"-85.124083"},{"name":"Carter","lat":"38.309555","lng":"-83.048821"},{"name":"Casey","lat":"37.321962","lng":"-84.928220"},{"name":"Christian","lat":"36.893388","lng":"-87.493554"},{"name":"Clark","lat":"37.970133","lng":"-84.144974"},{"name":"Clay","lat":"37.164466","lng":"-83.710763"},{"name":"Clinton","lat":"36.729124","lng":"-85.153499"},{"name":"Crittenden","lat":"37.358149","lng":"-88.105010"},{"name":"Cumberland","lat":"36.784227","lng":"-85.393499"},{"name":"Daviess","lat":"37.731671","lng":"-87.087139"},{"name":"Edmonson","lat":"37.227856","lng":"-86.217778"},{"name":"Elliott","lat":"38.116425","lng":"-83.097541"},{"name":"Estill","lat":"37.692460","lng":"-83.963927"},{"name":"Fayette","lat":"38.040157","lng":"-84.458443"},{"name":"Fleming","lat":"38.368431","lng":"-83.706152"},{"name":"Floyd","lat":"37.558283","lng":"-82.740337"},{"name":"Franklin","lat":"38.234919","lng":"-84.868786"},{"name":"Fulton","lat":"36.552620","lng":"-89.187723"},{"name":"Gallatin","lat":"38.760184","lng":"-84.862114"},{"name":"Garrard","lat":"37.630162","lng":"-84.545856"},{"name":"Grant","lat":"38.649210","lng":"-84.625946"},{"name":"Graves","lat":"36.723344","lng":"-88.649897"},{"name":"Grayson","lat":"37.458577","lng":"-86.344011"},{"name":"Green","lat":"37.269637","lng":"-85.561403"},{"name":"Greenup","lat":"38.563596","lng":"-82.933833"},{"name":"Hancock","lat":"37.843389","lng":"-86.792773"},{"name":"Hardin","lat":"37.695836","lng":"-85.963183"},{"name":"Harlan","lat":"36.859223","lng":"-83.221497"},{"name":"Harrison","lat":"38.443489","lng":"-84.332796"},{"name":"Hart","lat":"37.313856","lng":"-85.881995"},{"name":"Henderson","lat":"37.792542","lng":"-87.572577"},{"name":"Henry","lat":"38.451561","lng":"-85.120079"},{"name":"Hickman","lat":"36.675916","lng":"-88.972020"},{"name":"Hopkins","lat":"37.311070","lng":"-87.542196"},{"name":"Jackson","lat":"37.403320","lng":"-84.020686"},{"name":"Jefferson","lat":"38.189533","lng":"-85.657624"},{"name":"Jessamine","lat":"37.873291","lng":"-84.583960"},{"name":"Johnson","lat":"37.849260","lng":"-82.830639"},{"name":"Kenton","lat":"38.930477","lng":"-84.533492"},{"name":"Knott","lat":"37.354703","lng":"-82.949138"},{"name":"Knox","lat":"36.887476","lng":"-83.855630"},{"name":"Larue","lat":"37.545518","lng":"-85.697209"},{"name":"Laurel","lat":"37.113268","lng":"-84.119395"},{"name":"Lawrence","lat":"38.074459","lng":"-82.738305"},{"name":"Lee","lat":"37.605383","lng":"-83.718497"},{"name":"Leslie","lat":"37.087846","lng":"-83.388616"},{"name":"Letcher","lat":"37.118503","lng":"-82.861175"},{"name":"Lewis","lat":"38.532051","lng":"-83.373303"},{"name":"Lincoln","lat":"37.457257","lng":"-84.658074"},{"name":"Livingston","lat":"37.209517","lng":"-88.363426"},{"name":"Logan","lat":"36.859829","lng":"-86.881436"},{"name":"Lyon","lat":"37.023976","lng":"-88.083391"},{"name":"McCracken","lat":"37.053688","lng":"-88.712378"},{"name":"McCreary","lat":"36.731136","lng":"-84.491052"},{"name":"McLean","lat":"37.530575","lng":"-87.262931"},{"name":"Madison","lat":"37.723528","lng":"-84.277008"},{"name":"Magoffin","lat":"37.698954","lng":"-83.069716"},{"name":"Marion","lat":"37.552247","lng":"-85.269242"},{"name":"Marshall","lat":"36.882017","lng":"-88.332752"},{"name":"Martin","lat":"37.796774","lng":"-82.506623"},{"name":"Mason","lat":"38.594068","lng":"-83.828052"},{"name":"Meade","lat":"37.967476","lng":"-86.200863"},{"name":"Menifee","lat":"37.950715","lng":"-83.597345"},{"name":"Mercer","lat":"37.812085","lng":"-84.879695"},{"name":"Metcalfe","lat":"36.990394","lng":"-85.629554"},{"name":"Monroe","lat":"36.714077","lng":"-85.713508"},{"name":"Montgomery","lat":"38.038138","lng":"-83.912338"},{"name":"Morgan","lat":"37.922940","lng":"-83.258944"},{"name":"Muhlenberg","lat":"37.213816","lng":"-87.134092"},{"name":"Nelson","lat":"37.803188","lng":"-85.465955"},{"name":"Nicholas","lat":"38.337132","lng":"-84.025554"},{"name":"Ohio","lat":"37.477859","lng":"-86.844871"},{"name":"Oldham","lat":"38.400046","lng":"-85.456059"},{"name":"Owen","lat":"38.499603","lng":"-84.841509"},{"name":"Owsley","lat":"37.423452","lng":"-83.691566"},{"name":"Pendleton","lat":"38.690765","lng":"-84.354041"},{"name":"Perry","lat":"37.241282","lng":"-83.217772"},{"name":"Pike","lat":"37.482067","lng":"-82.402869"},{"name":"Powell","lat":"37.810379","lng":"-83.826985"},{"name":"Pulaski","lat":"37.108312","lng":"-84.579986"},{"name":"Robertson","lat":"38.513826","lng":"-84.063757"},{"name":"Rockcastle","lat":"37.361220","lng":"-84.314419"},{"name":"Rowan","lat":"38.205894","lng":"-83.425969"},{"name":"Russell","lat":"36.989127","lng":"-85.058976"},{"name":"Scott","lat":"38.289882","lng":"-84.579376"},{"name":"Shelby","lat":"38.239426","lng":"-85.228360"},{"name":"Simpson","lat":"36.740863","lng":"-86.581464"},{"name":"Spencer","lat":"38.026976","lng":"-85.321525"},{"name":"Taylor","lat":"37.365106","lng":"-85.326698"},{"name":"Todd","lat":"36.840338","lng":"-87.183642"},{"name":"Trigg","lat":"36.807681","lng":"-87.858652"},{"name":"Trimble","lat":"38.618193","lng":"-85.355171"},{"name":"Union","lat":"37.658029","lng":"-87.951650"},{"name":"Warren","lat":"36.995634","lng":"-86.423579"},{"name":"Washington","lat":"37.754209","lng":"-85.175416"},{"name":"Wayne","lat":"36.802011","lng":"-84.830440"},{"name":"Webster","lat":"37.520021","lng":"-87.685095"},{"name":"Whitley","lat":"36.758021","lng":"-84.144550"},{"name":"Wolfe","lat":"37.743774","lng":"-83.495068"},{"name":"Woodford","lat":"38.042789","lng":"-84.748147"}],"LA":[{"name":"Acadia","lat":"30.291497","lng":"-92.411037"},{"name":"Allen","lat":"30.652744","lng":"-92.819605"},{"name":"Ascension","lat":"30.202946","lng":"-90.910023"},{"name":"Assumption","lat":"29.899884","lng":"-91.050528"},{"name":"Avoyelles","lat":"31.085094","lng":"-91.993798"},{"name":"Beauregard","lat":"30.645018","lng":"-93.340253"},{"name":"Bienville","lat":"32.344268","lng":"-93.061513"},{"name":"Bossier","lat":"32.696202","lng":"-93.617977"},{"name":"Caddo","lat":"32.577195","lng":"-93.882423"},{"name":"Calcasieu","lat":"30.229559","lng":"-93.358015"},{"name":"Caldwell","lat":"32.101244","lng":"-92.114180"},{"name":"Cameron","lat":"29.871989","lng":"-93.165437"},{"name":"Catahoula","lat":"31.666517","lng":"-91.846703"},{"name":"Claiborne","lat":"32.827585","lng":"-92.991125"},{"name":"Concordia","lat":"31.469806","lng":"-91.626314"},{"name":"De Soto","lat":"32.059248","lng":"-93.740797"},{"name":"East Baton Rouge","lat":"30.544002","lng":"-91.093174"},{"name":"East Carroll","lat":"32.730170","lng":"-91.234141"},{"name":"East Feliciana","lat":"30.839784","lng":"-91.043434"},{"name":"Evangeline","lat":"30.720693","lng":"-92.404086"},{"name":"Franklin","lat":"32.138279","lng":"-91.672101"},{"name":"Grant","lat":"31.597787","lng":"-92.561716"},{"name":"Iberia","lat":"29.606013","lng":"-91.842706"},{"name":"Iberville","lat":"30.288394","lng":"-91.363150"},{"name":"Jackson","lat":"32.304480","lng":"-92.556672"},{"name":"Jefferson","lat":"29.503300","lng":"-90.036231"},{"name":"Jefferson Davis","lat":"30.269529","lng":"-92.816221"},{"name":"Lafayette","lat":"30.206507","lng":"-92.064170"},{"name":"Lafourche","lat":"29.491993","lng":"-90.394849"},{"name":"La Salle","lat":"31.680836","lng":"-92.161809"},{"name":"Lincoln","lat":"32.601148","lng":"-92.662082"},{"name":"Livingston","lat":"30.440419","lng":"-90.727474"},{"name":"Madison","lat":"32.365824","lng":"-91.240729"},{"name":"Morehouse","lat":"32.820008","lng":"-91.800399"},{"name":"Natchitoches","lat":"31.734982","lng":"-93.086106"},{"name":"Orleans","lat":"30.068636","lng":"-89.939007"},{"name":"Ouachita","lat":"32.477495","lng":"-92.154798"},{"name":"Plaquemines","lat":"29.402337","lng":"-89.298489"},{"name":"Pointe Coupee","lat":"30.708319","lng":"-91.604621"},{"name":"Rapides","lat":"31.193204","lng":"-92.535953"},{"name":"Red River","lat":"32.101213","lng":"-93.349050"},{"name":"Richland","lat":"32.418121","lng":"-91.758375"},{"name":"Sabine","lat":"31.560209","lng":"-93.559228"},{"name":"St. Bernard","lat":"29.918110","lng":"-89.263494"},{"name":"St. Charles","lat":"29.913833","lng":"-90.359314"},{"name":"St. Helena","lat":"30.821423","lng":"-90.709350"},{"name":"St. James","lat":"30.024820","lng":"-90.793956"},{"name":"St. John the Baptist","lat":"30.117471","lng":"-90.504677"},{"name":"St. Landry","lat":"30.583441","lng":"-91.989275"},{"name":"St. Martin","lat":"30.121433","lng":"-91.611481"},{"name":"St. Mary","lat":"29.629349","lng":"-91.463804"},{"name":"St. Tammany","lat":"30.410022","lng":"-89.951962"},{"name":"Tangipahoa","lat":"30.621581","lng":"-90.406633"},{"name":"Tensas","lat":"32.001489","lng":"-91.342576"},{"name":"Terrebonne","lat":"29.333266","lng":"-90.844191"},{"name":"Union","lat":"32.829349","lng":"-92.375650"},{"name":"Vermilion","lat":"29.786872","lng":"-92.290090"},{"name":"Vernon","lat":"31.110563","lng":"-93.181520"},{"name":"Washington","lat":"30.852144","lng":"-90.046253"},{"name":"Webster","lat":"32.732152","lng":"-93.339825"},{"name":"West Baton Rouge","lat":"30.464052","lng":"-91.309808"},{"name":"West Carroll","lat":"32.792480","lng":"-91.451998"},{"name":"West Feliciana","lat":"30.872701","lng":"-91.421008"},{"name":"Winn","lat":"31.941187","lng":"-92.641269"}],"ME":[{"name":"Androscoggin","lat":"44.167681","lng":"-70.207435"},{"name":"Aroostook","lat":"46.727057","lng":"-68.649410"},{"name":"Cumberland","lat":"43.808348","lng":"-70.330375"},{"name":"Franklin","lat":"44.973012","lng":"-70.444727"},{"name":"Hancock","lat":"44.564906","lng":"-68.370703"},{"name":"Kennebec","lat":"44.417012","lng":"-69.765764"},{"name":"Knox","lat":"44.042045","lng":"-69.038515"},{"name":"Lincoln","lat":"43.994265","lng":"-69.514029"},{"name":"Oxford","lat":"44.494585","lng":"-70.734688"},{"name":"Penobscot","lat":"45.390602","lng":"-68.657487"},{"name":"Piscataquis","lat":"45.917678","lng":"-69.104548"},{"name":"Sagadahoc","lat":"43.916694","lng":"-69.843994"},{"name":"Somerset","lat":"45.507482","lng":"-69.976040"},{"name":"Waldo","lat":"44.505361","lng":"-69.139678"},{"name":"Washington","lat":"44.967009","lng":"-67.609354"},{"name":"York","lat":"43.427239","lng":"-70.670402"}],"MD":[{"name":"Allegany","lat":"39.612309","lng":"-78.703108"},{"name":"Anne Arundel","lat":"38.993374","lng":"-76.560511"},{"name":"Baltimore","lat":"39.443167","lng":"-76.616569"},{"name":"Calvert","lat":"38.521358","lng":"-76.525864"},{"name":"Caroline","lat":"38.871531","lng":"-75.831631"},{"name":"Carroll","lat":"39.563189","lng":"-77.015512"},{"name":"Cecil","lat":"39.562352","lng":"-75.941584"},{"name":"Charles","lat":"38.472853","lng":"-77.015427"},{"name":"Dorchester","lat":"38.429196","lng":"-76.047433"},{"name":"Frederick","lat":"39.470427","lng":"-77.397627"},{"name":"Garrett","lat":"39.529871","lng":"-79.269416"},{"name":"Harford","lat":"39.537429","lng":"-76.299789"},{"name":"Howard","lat":"39.252264","lng":"-76.924406"},{"name":"Kent","lat":"39.239177","lng":"-76.124200"},{"name":"Montgomery","lat":"39.137382","lng":"-77.203063"},{"name":"Prince George's","lat":"38.825880","lng":"-76.847272"},{"name":"Queen Anne's","lat":"39.040693","lng":"-76.082405"},{"name":"St. Mary's","lat":"38.222666","lng":"-76.534271"},{"name":"Somerset","lat":"38.074450","lng":"-75.853323"},{"name":"Talbot","lat":"38.749427","lng":"-76.179130"},{"name":"Washington","lat":"39.603621","lng":"-77.814671"},{"name":"Wicomico","lat":"38.367389","lng":"-75.632206"},{"name":"Worcester","lat":"38.222133","lng":"-75.309932"},{"name":"Baltimore","lat":"39.300214","lng":"-76.610516"}],"MA":[{"name":"Barnstable","lat":"41.798819","lng":"-70.211083"},{"name":"Berkshire","lat":"42.375314","lng":"-73.213948"},{"name":"Bristol","lat":"41.748576","lng":"-71.087062"},{"name":"Dukes","lat":"41.380939","lng":"-70.701536"},{"name":"Essex","lat":"42.642711","lng":"-70.865107"},{"name":"Franklin","lat":"42.583791","lng":"-72.591655"},{"name":"Hampden","lat":"42.136198","lng":"-72.635648"},{"name":"Hampshire","lat":"42.339459","lng":"-72.663694"},{"name":"Middlesex","lat":"42.479477","lng":"-71.396507"},{"name":"Nantucket","lat":"41.305878","lng":"-70.141910"},{"name":"Norfolk","lat":"42.169703","lng":"-71.179875"},{"name":"Plymouth","lat":"41.987196","lng":"-70.741942"},{"name":"Suffolk","lat":"42.331960","lng":"-71.020173"},{"name":"Worcester","lat":"42.311693","lng":"-71.940282"}],"MI":[{"name":"Alcona","lat":"44.682535","lng":"-82.834080"},{"name":"Alger","lat":"47.080077","lng":"-86.564108"},{"name":"Allegan","lat":"42.595788","lng":"-86.634745"},{"name":"Alpena","lat":"44.894954","lng":"-83.426574"},{"name":"Antrim","lat":"45.005457","lng":"-85.175625"},{"name":"Arenac","lat":"44.036870","lng":"-83.740675"},{"name":"Baraga","lat":"46.696068","lng":"-88.356022"},{"name":"Barry","lat":"42.582811","lng":"-85.314550"},{"name":"Bay","lat":"43.699711","lng":"-83.978701"},{"name":"Benzie","lat":"44.648621","lng":"-86.494317"},{"name":"Berrien","lat":"41.792639","lng":"-86.741822"},{"name":"Branch","lat":"41.918585","lng":"-85.066523"},{"name":"Calhoun","lat":"42.242990","lng":"-85.012385"},{"name":"Cass","lat":"41.916240","lng":"-85.999457"},{"name":"Charlevoix","lat":"45.513164","lng":"-85.450392"},{"name":"Cheboygan","lat":"45.476120","lng":"-84.495271"},{"name":"Chippewa","lat":"46.321819","lng":"-84.520630"},{"name":"Clare","lat":"43.991137","lng":"-84.838325"},{"name":"Clinton","lat":"42.950455","lng":"-84.591695"},{"name":"Crawford","lat":"44.680208","lng":"-84.611132"},{"name":"Delta","lat":"45.805101","lng":"-86.901373"},{"name":"Dickinson","lat":"46.012823","lng":"-87.866119"},{"name":"Eaton","lat":"42.589614","lng":"-84.846524"},{"name":"Emmet","lat":"45.590094","lng":"-84.986822"},{"name":"Genesee","lat":"43.021077","lng":"-83.706372"},{"name":"Gladwin","lat":"43.989750","lng":"-84.389816"},{"name":"Gogebic","lat":"46.488054","lng":"-89.788314"},{"name":"Grand Traverse","lat":"44.718688","lng":"-85.553848"},{"name":"Gratiot","lat":"43.292326","lng":"-84.604690"},{"name":"Hillsdale","lat":"41.864475","lng":"-84.642409"},{"name":"Houghton","lat":"46.998305","lng":"-88.652066"},{"name":"Huron","lat":"43.907616","lng":"-82.857045"},{"name":"Ingham","lat":"42.603534","lng":"-84.373811"},{"name":"Ionia","lat":"42.944650","lng":"-85.073766"},{"name":"Iosco","lat":"44.329482","lng":"-82.849447"},{"name":"Iron","lat":"46.170249","lng":"-88.540409"},{"name":"Isabella","lat":"43.645233","lng":"-84.839425"},{"name":"Jackson","lat":"42.248474","lng":"-84.420868"},{"name":"Kalamazoo","lat":"42.246266","lng":"-85.532854"},{"name":"Kalkaska","lat":"44.678881","lng":"-85.088992"},{"name":"Kent","lat":"43.032497","lng":"-85.547446"},{"name":"Keweenaw","lat":"47.681981","lng":"-88.148802"},{"name":"Lake","lat":"43.995187","lng":"-85.811400"},{"name":"Lapeer","lat":"43.088633","lng":"-83.224325"},{"name":"Leelanau","lat":"45.146182","lng":"-86.051574"},{"name":"Lenawee","lat":"41.895915","lng":"-84.066853"},{"name":"Livingston","lat":"42.602532","lng":"-83.911718"},{"name":"Luce","lat":"46.940602","lng":"-85.582368"},{"name":"Mackinac","lat":"46.167981","lng":"-85.303756"},{"name":"Macomb","lat":"42.671467","lng":"-82.910869"},{"name":"Manistee","lat":"44.350385","lng":"-86.602967"},{"name":"Marquette","lat":"46.656597","lng":"-87.584028"},{"name":"Mason","lat":"43.996636","lng":"-86.750814"},{"name":"Mecosta","lat":"43.635295","lng":"-85.332751"},{"name":"Menominee","lat":"45.544174","lng":"-87.509892"},{"name":"Midland","lat":"43.648378","lng":"-84.379220"},{"name":"Missaukee","lat":"44.325424","lng":"-85.085471"},{"name":"Monroe","lat":"41.916097","lng":"-83.487106"},{"name":"Montcalm","lat":"43.312782","lng":"-85.149468"},{"name":"Montmorency","lat":"45.024134","lng":"-84.130107"},{"name":"Muskegon","lat":"43.289258","lng":"-86.751892"},{"name":"Newaygo","lat":"43.562709","lng":"-85.791423"},{"name":"Oakland","lat":"42.660452","lng":"-83.384210"},{"name":"Oceana","lat":"43.647255","lng":"-86.807575"},{"name":"Ogemaw","lat":"44.333280","lng":"-84.128073"},{"name":"Ontonagon","lat":"47.216604","lng":"-89.500461"},{"name":"Osceola","lat":"43.997552","lng":"-85.322283"},{"name":"Oscoda","lat":"44.685121","lng":"-84.124894"},{"name":"Otsego","lat":"45.021794","lng":"-84.576597"},{"name":"Ottawa","lat":"42.942346","lng":"-86.655342"},{"name":"Presque Isle","lat":"45.489515","lng":"-83.384019"},{"name":"Roscommon","lat":"44.339517","lng":"-84.611272"},{"name":"Saginaw","lat":"43.328267","lng":"-84.055410"},{"name":"St. Clair","lat":"42.928804","lng":"-82.668914"},{"name":"St. Joseph","lat":"41.911488","lng":"-85.522870"},{"name":"Sanilac","lat":"43.449155","lng":"-82.642815"},{"name":"Schoolcraft","lat":"46.020758","lng":"-86.199352"},{"name":"Shiawassee","lat":"42.951545","lng":"-84.146352"},{"name":"Tuscola","lat":"43.487902","lng":"-83.436618"},{"name":"Van Buren","lat":"42.283986","lng":"-86.305697"},{"name":"Washtenaw","lat":"42.252327","lng":"-83.844634"},{"name":"Wayne","lat":"42.284664","lng":"-83.261953"},{"name":"Wexford","lat":"44.331375","lng":"-85.570046"}],"MN":[{"name":"Aitkin","lat":"46.602446","lng":"-93.419760"},{"name":"Anoka","lat":"45.274110","lng":"-93.242723"},{"name":"Becker","lat":"46.937629","lng":"-95.741757"},{"name":"Beltrami","lat":"47.878825","lng":"-94.986698"},{"name":"Benton","lat":"45.701227","lng":"-94.001440"},{"name":"Big Stone","lat":"45.419925","lng":"-96.402226"},{"name":"Blue Earth","lat":"44.038225","lng":"-94.064071"},{"name":"Brown","lat":"44.246542","lng":"-94.733647"},{"name":"Carlton","lat":"46.603818","lng":"-92.671044"},{"name":"Carver","lat":"44.821381","lng":"-93.800575"},{"name":"Cass","lat":"46.951427","lng":"-94.333773"},{"name":"Chippewa","lat":"45.028625","lng":"-95.564108"},{"name":"Chisago","lat":"45.505444","lng":"-92.903849"},{"name":"Clay","lat":"46.898377","lng":"-96.494901"},{"name":"Clearwater","lat":"47.575873","lng":"-95.371117"},{"name":"Cook","lat":"47.538571","lng":"-90.290190"},{"name":"Cottonwood","lat":"44.010711","lng":"-95.183130"},{"name":"Crow Wing","lat":"46.491114","lng":"-94.071213"},{"name":"Dakota","lat":"44.670893","lng":"-93.062481"},{"name":"Dodge","lat":"44.020706","lng":"-92.869353"},{"name":"Douglas","lat":"45.936429","lng":"-95.460610"},{"name":"Faribault","lat":"43.676522","lng":"-93.947234"},{"name":"Fillmore","lat":"43.677270","lng":"-92.093681"},{"name":"Freeborn","lat":"43.674202","lng":"-93.350289"},{"name":"Goodhue","lat":"44.406178","lng":"-92.716000"},{"name":"Grant","lat":"45.930743","lng":"-96.010699"},{"name":"Hennepin","lat":"45.006064","lng":"-93.475185"},{"name":"Houston","lat":"43.666990","lng":"-91.501556"},{"name":"Hubbard","lat":"47.095551","lng":"-94.913290"},{"name":"Isanti","lat":"45.562431","lng":"-93.296339"},{"name":"Itasca","lat":"47.490843","lng":"-93.613128"},{"name":"Jackson","lat":"43.673025","lng":"-95.149704"},{"name":"Kanabec","lat":"45.947760","lng":"-93.297788"},{"name":"Kandiyohi","lat":"45.152714","lng":"-95.004981"},{"name":"Kittson","lat":"48.776040","lng":"-96.780349"},{"name":"Koochiching","lat":"48.245490","lng":"-93.782842"},{"name":"Lac qui Parle","lat":"44.999855","lng":"-96.176836"},{"name":"Lake","lat":"47.517111","lng":"-91.411704"},{"name":"Lake of the Woods","lat":"48.768100","lng":"-94.904634"},{"name":"Le Sueur","lat":"44.373397","lng":"-93.730180"},{"name":"Lincoln","lat":"44.408238","lng":"-96.272032"},{"name":"Lyon","lat":"44.409195","lng":"-95.847268"},{"name":"McLeod","lat":"44.821644","lng":"-94.272320"},{"name":"Mahnomen","lat":"47.325842","lng":"-95.810703"},{"name":"Marshall","lat":"48.362728","lng":"-96.357761"},{"name":"Martin","lat":"43.677118","lng":"-94.537198"},{"name":"Meeker","lat":"45.123156","lng":"-94.527346"},{"name":"Mille Lacs","lat":"45.929043","lng":"-93.632996"},{"name":"Morrison","lat":"46.020484","lng":"-94.266619"},{"name":"Mower","lat":"43.666249","lng":"-92.759514"},{"name":"Murray","lat":"44.015594","lng":"-95.761581"},{"name":"Nicollet","lat":"44.358820","lng":"-94.245685"},{"name":"Nobles","lat":"43.677686","lng":"-95.763132"},{"name":"Norman","lat":"47.329470","lng":"-96.463807"},{"name":"Olmsted","lat":"44.003430","lng":"-92.406722"},{"name":"Otter Tail","lat":"46.405725","lng":"-95.714578"},{"name":"Pennington","lat":"48.069247","lng":"-96.037725"},{"name":"Pine","lat":"46.100940","lng":"-92.763094"},{"name":"Pipestone","lat":"44.015361","lng":"-96.257015"},{"name":"Polk","lat":"47.774254","lng":"-96.400027"},{"name":"Pope","lat":"45.589623","lng":"-95.446705"},{"name":"Ramsey","lat":"45.015250","lng":"-93.100141"},{"name":"Red Lake","lat":"47.865487","lng":"-96.087180"},{"name":"Redwood","lat":"44.403536","lng":"-95.254242"},{"name":"Renville","lat":"44.723697","lng":"-94.955617"},{"name":"Rice","lat":"44.350943","lng":"-93.298503"},{"name":"Rock","lat":"43.669587","lng":"-96.263238"},{"name":"Roseau","lat":"48.761066","lng":"-95.821530"},{"name":"St. Louis","lat":"47.583852","lng":"-92.463645"},{"name":"Scott","lat":"44.651932","lng":"-93.534553"},{"name":"Sherburne","lat":"45.443171","lng":"-93.775092"},{"name":"Sibley","lat":"44.575734","lng":"-94.230123"},{"name":"Stearns","lat":"45.555235","lng":"-94.610482"},{"name":"Steele","lat":"44.015261","lng":"-93.220453"},{"name":"Stevens","lat":"45.593461","lng":"-95.992315"},{"name":"Swift","lat":"45.275450","lng":"-95.690398"},{"name":"Todd","lat":"46.066569","lng":"-94.900576"},{"name":"Traverse","lat":"45.769840","lng":"-96.475049"},{"name":"Wabasha","lat":"44.289693","lng":"-92.233341"},{"name":"Wadena","lat":"46.586784","lng":"-94.988331"},{"name":"Waseca","lat":"44.018460","lng":"-93.589844"},{"name":"Washington","lat":"45.037929","lng":"-92.890117"},{"name":"Watonwan","lat":"43.978366","lng":"-94.614128"},{"name":"Wilkin","lat":"46.362335","lng":"-96.476657"},{"name":"Winona","lat":"43.982268","lng":"-91.776708"},{"name":"Wright","lat":"45.175091","lng":"-93.966397"},{"name":"Yellow Medicine","lat":"44.715736","lng":"-95.862756"}],"MS":[{"name":"Adams","lat":"31.486218","lng":"-91.351781"},{"name":"Alcorn","lat":"34.886648","lng":"-88.581014"},{"name":"Amite","lat":"31.203933","lng":"-90.795542"},{"name":"Attala","lat":"33.090470","lng":"-89.588622"},{"name":"Benton","lat":"34.810773","lng":"-89.200029"},{"name":"Bolivar","lat":"33.799278","lng":"-90.884476"},{"name":"Calhoun","lat":"33.936634","lng":"-89.337114"},{"name":"Carroll","lat":"33.440795","lng":"-89.918887"},{"name":"Chickasaw","lat":"33.921654","lng":"-88.945808"},{"name":"Choctaw","lat":"33.345964","lng":"-89.251332"},{"name":"Claiborne","lat":"31.972810","lng":"-90.915424"},{"name":"Clarke","lat":"32.048448","lng":"-88.685964"},{"name":"Clay","lat":"33.661734","lng":"-88.783326"},{"name":"Coahoma","lat":"34.228670","lng":"-90.603165"},{"name":"Copiah","lat":"31.866915","lng":"-90.448758"},{"name":"Covington","lat":"31.633331","lng":"-89.548897"},{"name":"DeSoto","lat":"34.874266","lng":"-89.993240"},{"name":"Forrest","lat":"31.188580","lng":"-89.259447"},{"name":"Franklin","lat":"31.477798","lng":"-90.895884"},{"name":"George","lat":"30.855431","lng":"-88.642268"},{"name":"Greene","lat":"31.212846","lng":"-88.634811"},{"name":"Grenada","lat":"33.770031","lng":"-89.802740"},{"name":"Hancock","lat":"30.391437","lng":"-89.479850"},{"name":"Harrison","lat":"30.416536","lng":"-89.083376"},{"name":"Hinds","lat":"32.267924","lng":"-90.465900"},{"name":"Holmes","lat":"33.125942","lng":"-90.091197"},{"name":"Humphreys","lat":"33.132978","lng":"-90.523911"},{"name":"Issaquena","lat":"32.754977","lng":"-90.988552"},{"name":"Itawamba","lat":"34.281075","lng":"-88.363127"},{"name":"Jackson","lat":"30.458491","lng":"-88.619991"},{"name":"Jasper","lat":"32.016989","lng":"-89.119430"},{"name":"Jefferson","lat":"31.733633","lng":"-91.043878"},{"name":"Jefferson Davis","lat":"31.564734","lng":"-89.826626"},{"name":"Jones","lat":"31.621044","lng":"-89.167262"},{"name":"Kemper","lat":"32.750136","lng":"-88.625631"},{"name":"Lafayette","lat":"34.349298","lng":"-89.485903"},{"name":"Lamar","lat":"31.197135","lng":"-89.514952"},{"name":"Lauderdale","lat":"32.403998","lng":"-88.660449"},{"name":"Lawrence","lat":"31.550009","lng":"-90.107530"},{"name":"Leake","lat":"32.753268","lng":"-89.522568"},{"name":"Lee","lat":"34.288965","lng":"-88.680887"},{"name":"Leflore","lat":"33.549790","lng":"-90.294934"},{"name":"Lincoln","lat":"31.535216","lng":"-90.453566"},{"name":"Lowndes","lat":"33.471424","lng":"-88.439723"},{"name":"Madison","lat":"32.634370","lng":"-90.034160"},{"name":"Marion","lat":"31.230126","lng":"-89.821736"},{"name":"Marshall","lat":"34.766190","lng":"-89.504231"},{"name":"Monroe","lat":"33.890030","lng":"-88.485038"},{"name":"Montgomery","lat":"33.500714","lng":"-89.639625"},{"name":"Neshoba","lat":"32.752518","lng":"-89.119274"},{"name":"Newton","lat":"32.401970","lng":"-89.118412"},{"name":"Noxubee","lat":"33.106270","lng":"-88.565787"},{"name":"Oktibbeha","lat":"33.422313","lng":"-88.876151"},{"name":"Panola","lat":"34.365205","lng":"-89.963065"},{"name":"Pearl River","lat":"30.773791","lng":"-89.586832"},{"name":"Perry","lat":"31.169307","lng":"-88.988755"},{"name":"Pike","lat":"31.177517","lng":"-90.397725"},{"name":"Pontotoc","lat":"34.227081","lng":"-89.037239"},{"name":"Prentiss","lat":"34.620866","lng":"-88.522240"},{"name":"Quitman","lat":"34.252640","lng":"-90.290525"},{"name":"Rankin","lat":"32.262057","lng":"-89.946552"},{"name":"Scott","lat":"32.427127","lng":"-89.533209"},{"name":"Sharkey","lat":"32.892490","lng":"-90.827388"},{"name":"Simpson","lat":"31.902503","lng":"-89.917707"},{"name":"Smith","lat":"32.019034","lng":"-89.494973"},{"name":"Stone","lat":"30.790184","lng":"-89.112297"},{"name":"Sunflower","lat":"33.605529","lng":"-90.595090"},{"name":"Tallahatchie","lat":"33.955891","lng":"-90.172833"},{"name":"Tate","lat":"34.649553","lng":"-89.943105"},{"name":"Tippah","lat":"34.763618","lng":"-88.918819"},{"name":"Tishomingo","lat":"34.737699","lng":"-88.236067"},{"name":"Tunica","lat":"34.652201","lng":"-90.371770"},{"name":"Union","lat":"34.489101","lng":"-89.002300"},{"name":"Walthall","lat":"31.164492","lng":"-90.103431"},{"name":"Warren","lat":"32.357005","lng":"-90.851791"},{"name":"Washington","lat":"33.273131","lng":"-90.944430"},{"name":"Wayne","lat":"31.644760","lng":"-88.682057"},{"name":"Webster","lat":"33.612048","lng":"-89.283836"},{"name":"Wilkinson","lat":"31.160249","lng":"-91.325567"},{"name":"Winston","lat":"33.078724","lng":"-89.037391"},{"name":"Yalobusha","lat":"34.030669","lng":"-89.703793"},{"name":"Yazoo","lat":"32.765675","lng":"-90.387928"}],"MO":[{"name":"Adair","lat":"40.190666","lng":"-92.603592"},{"name":"Andrew","lat":"39.988863","lng":"-94.803551"},{"name":"Atchison","lat":"40.431846","lng":"-95.437555"},{"name":"Audrain","lat":"39.214480","lng":"-91.843415"},{"name":"Barry","lat":"36.699378","lng":"-93.834326"},{"name":"Barton","lat":"37.500799","lng":"-94.344089"},{"name":"Bates","lat":"38.257217","lng":"-94.339246"},{"name":"Benton","lat":"38.301036","lng":"-93.287942"},{"name":"Bollinger","lat":"37.318349","lng":"-90.024601"},{"name":"Boone","lat":"38.989657","lng":"-92.310779"},{"name":"Buchanan","lat":"39.660370","lng":"-94.808173"},{"name":"Butler","lat":"36.715180","lng":"-90.403130"},{"name":"Caldwell","lat":"39.658998","lng":"-93.979179"},{"name":"Callaway","lat":"38.835966","lng":"-91.924089"},{"name":"Camden","lat":"38.031995","lng":"-92.765138"},{"name":"Cape Girardeau","lat":"37.383882","lng":"-89.684908"},{"name":"Carroll","lat":"39.427375","lng":"-93.500227"},{"name":"Carter","lat":"36.944783","lng":"-90.945626"},{"name":"Cass","lat":"38.647159","lng":"-94.354242"},{"name":"Cedar","lat":"37.733655","lng":"-93.850014"},{"name":"Chariton","lat":"39.517969","lng":"-92.961621"},{"name":"Christian","lat":"36.969739","lng":"-93.187614"},{"name":"Clark","lat":"40.407275","lng":"-91.729472"},{"name":"Clay","lat":"39.315551","lng":"-94.421502"},{"name":"Clinton","lat":"39.608723","lng":"-94.395803"},{"name":"Cole","lat":"38.506847","lng":"-92.271404"},{"name":"Cooper","lat":"38.845386","lng":"-92.812323"},{"name":"Crawford","lat":"37.966561","lng":"-91.313933"},{"name":"Dade","lat":"37.432350","lng":"-93.854878"},{"name":"Dallas","lat":"37.683583","lng":"-93.033812"},{"name":"Daviess","lat":"39.962839","lng":"-93.970053"},{"name":"DeKalb","lat":"39.894665","lng":"-94.407190"},{"name":"Dent","lat":"37.603250","lng":"-91.495916"},{"name":"Douglas","lat":"36.946517","lng":"-92.515892"},{"name":"Dunklin","lat":"36.153025","lng":"-90.062254"},{"name":"Franklin","lat":"38.408313","lng":"-91.073410"},{"name":"Gasconade","lat":"38.441183","lng":"-91.505780"},{"name":"Gentry","lat":"40.209379","lng":"-94.404110"},{"name":"Greene","lat":"37.258196","lng":"-93.340641"},{"name":"Grundy","lat":"40.112541","lng":"-93.565054"},{"name":"Harrison","lat":"40.345620","lng":"-93.992582"},{"name":"Henry","lat":"38.386491","lng":"-93.792628"},{"name":"Hickory","lat":"37.936700","lng":"-93.322835"},{"name":"Holt","lat":"40.095724","lng":"-95.219072"},{"name":"Howard","lat":"39.143365","lng":"-92.695926"},{"name":"Howell","lat":"36.774369","lng":"-91.887368"},{"name":"Iron","lat":"37.625960","lng":"-90.699627"},{"name":"Jackson","lat":"39.007233","lng":"-94.342507"},{"name":"Jasper","lat":"37.200865","lng":"-94.338869"},{"name":"Jefferson","lat":"38.257414","lng":"-90.543138"},{"name":"Johnson","lat":"38.745880","lng":"-93.805999"},{"name":"Knox","lat":"40.136776","lng":"-92.146809"},{"name":"Laclede","lat":"37.659690","lng":"-92.594832"},{"name":"Lafayette","lat":"39.068705","lng":"-93.802639"},{"name":"Lawrence","lat":"37.106135","lng":"-93.833262"},{"name":"Lewis","lat":"40.084559","lng":"-91.728803"},{"name":"Lincoln","lat":"39.058568","lng":"-90.957771"},{"name":"Linn","lat":"39.864440","lng":"-93.108019"},{"name":"Livingston","lat":"39.778587","lng":"-93.548201"},{"name":"McDonald","lat":"36.630218","lng":"-94.343956"},{"name":"Macon","lat":"39.829795","lng":"-92.564340"},{"name":"Madison","lat":"37.473235","lng":"-90.345453"},{"name":"Maries","lat":"38.162615","lng":"-91.923601"},{"name":"Marion","lat":"39.807538","lng":"-91.635379"},{"name":"Mercer","lat":"40.421414","lng":"-93.567631"},{"name":"Miller","lat":"38.216720","lng":"-92.429871"},{"name":"Mississippi","lat":"36.826264","lng":"-89.295929"},{"name":"Moniteau","lat":"38.633037","lng":"-92.583642"},{"name":"Monroe","lat":"39.498270","lng":"-92.006458"},{"name":"Montgomery","lat":"38.935162","lng":"-91.465437"},{"name":"Morgan","lat":"38.420807","lng":"-92.874835"},{"name":"New Madrid","lat":"36.594261","lng":"-89.655949"},{"name":"Newton","lat":"36.908017","lng":"-94.334741"},{"name":"Nodaway","lat":"40.360484","lng":"-94.883281"},{"name":"Oregon","lat":"36.684867","lng":"-91.402902"},{"name":"Osage","lat":"38.464254","lng":"-91.859504"},{"name":"Ozark","lat":"36.649643","lng":"-92.458580"},{"name":"Pemiscot","lat":"36.209916","lng":"-89.785942"},{"name":"Perry","lat":"37.711130","lng":"-89.802125"},{"name":"Pettis","lat":"38.727367","lng":"-93.285207"},{"name":"Phelps","lat":"37.866326","lng":"-91.790349"},{"name":"Pike","lat":"39.344178","lng":"-91.171042"},{"name":"Platte","lat":"39.378696","lng":"-94.761472"},{"name":"Polk","lat":"37.616761","lng":"-93.400817"},{"name":"Pulaski","lat":"37.824835","lng":"-92.207022"},{"name":"Putnam","lat":"40.478606","lng":"-93.014531"},{"name":"Ralls","lat":"39.553455","lng":"-91.524787"},{"name":"Randolph","lat":"39.441601","lng":"-92.492725"},{"name":"Ray","lat":"39.308401","lng":"-93.995746"},{"name":"Reynolds","lat":"37.360857","lng":"-90.969516"},{"name":"Ripley","lat":"36.648902","lng":"-90.867060"},{"name":"St. Charles","lat":"38.781102","lng":"-90.674915"},{"name":"St. Clair","lat":"38.039069","lng":"-93.773077"},{"name":"Ste. Genevieve","lat":"37.890180","lng":"-90.181170"},{"name":"St. Francois","lat":"37.810707","lng":"-90.473868"},{"name":"St. Louis","lat":"38.640702","lng":"-90.445954"},{"name":"Saline","lat":"39.135840","lng":"-93.204164"},{"name":"Schuyler","lat":"40.469361","lng":"-92.519016"},{"name":"Scotland","lat":"40.447686","lng":"-92.142824"},{"name":"Scott","lat":"37.047793","lng":"-89.568098"},{"name":"Shannon","lat":"37.151980","lng":"-91.398364"},{"name":"Shelby","lat":"39.797531","lng":"-92.088719"},{"name":"Stoddard","lat":"36.855428","lng":"-89.941735"},{"name":"Stone","lat":"36.747857","lng":"-93.467782"},{"name":"Sullivan","lat":"40.209587","lng":"-93.109783"},{"name":"Taney","lat":"36.649827","lng":"-93.042819"},{"name":"Texas","lat":"37.314257","lng":"-91.964478"},{"name":"Vernon","lat":"37.850196","lng":"-94.341597"},{"name":"Warren","lat":"38.761902","lng":"-91.159307"},{"name":"Washington","lat":"37.942315","lng":"-90.897056"},{"name":"Wayne","lat":"37.113825","lng":"-90.460868"},{"name":"Webster","lat":"37.280804","lng":"-92.876080"},{"name":"Worth","lat":"40.480482","lng":"-94.419129"},{"name":"Wright","lat":"37.267636","lng":"-92.480010"},{"name":"St. Louis","lat":"38.635699","lng":"-90.244582"}],"MT":[{"name":"Beaverhead","lat":"45.133863","lng":"-112.892869"},{"name":"Big Horn","lat":"45.407869","lng":"-107.518163"},{"name":"Blaine","lat":"48.428282","lng":"-108.967648"},{"name":"Broadwater","lat":"46.334476","lng":"-111.496103"},{"name":"Carbon","lat":"45.224475","lng":"-109.028551"},{"name":"Carter","lat":"45.516825","lng":"-104.515324"},{"name":"Cascade","lat":"47.316443","lng":"-111.350571"},{"name":"Chouteau","lat":"47.886837","lng":"-110.436189"},{"name":"Custer","lat":"46.261481","lng":"-105.550508"},{"name":"Daniels","lat":"48.794429","lng":"-105.541739"},{"name":"Dawson","lat":"47.272425","lng":"-104.901027"},{"name":"Deer Lodge","lat":"46.099059","lng":"-113.139108"},{"name":"Fallon","lat":"46.318184","lng":"-104.405718"},{"name":"Fergus","lat":"47.222997","lng":"-109.223280"},{"name":"Flathead","lat":"48.314696","lng":"-114.054319"},{"name":"Gallatin","lat":"45.535559","lng":"-111.173443"},{"name":"Garfield","lat":"47.281174","lng":"-106.982212"},{"name":"Glacier","lat":"48.705671","lng":"-112.990502"},{"name":"Golden Valley","lat":"46.380624","lng":"-109.174586"},{"name":"Granite","lat":"46.395358","lng":"-113.425683"},{"name":"Hill","lat":"48.628331","lng":"-110.106372"},{"name":"Jefferson","lat":"46.126557","lng":"-112.056771"},{"name":"Judith Basin","lat":"47.032558","lng":"-110.305320"},{"name":"Lake","lat":"47.642901","lng":"-114.083687"},{"name":"Lewis and Clark","lat":"47.122133","lng":"-112.382954"},{"name":"Liberty","lat":"48.559654","lng":"-111.036924"},{"name":"Lincoln","lat":"48.542232","lng":"-115.404343"},{"name":"McCone","lat":"47.629628","lng":"-105.757222"},{"name":"Madison","lat":"45.319288","lng":"-111.917328"},{"name":"Meagher","lat":"46.585706","lng":"-110.921781"},{"name":"Mineral","lat":"47.155213","lng":"-115.064550"},{"name":"Missoula","lat":"47.027263","lng":"-113.892681"},{"name":"Musselshell","lat":"46.505665","lng":"-108.436982"},{"name":"Park","lat":"45.421905","lng":"-110.532798"},{"name":"Petroleum","lat":"47.141917","lng":"-108.226575"},{"name":"Phillips","lat":"48.250155","lng":"-107.928833"},{"name":"Pondera","lat":"48.230312","lng":"-112.219928"},{"name":"Powder River","lat":"45.408890","lng":"-105.555259"},{"name":"Powell","lat":"46.844225","lng":"-112.931100"},{"name":"Prairie","lat":"46.852434","lng":"-105.375808"},{"name":"Ravalli","lat":"46.079298","lng":"-114.119065"},{"name":"Richland","lat":"47.785513","lng":"-104.563387"},{"name":"Roosevelt","lat":"48.282747","lng":"-104.995170"},{"name":"Rosebud","lat":"46.161734","lng":"-106.701953"},{"name":"Sanders","lat":"47.756469","lng":"-115.180225"},{"name":"Sheridan","lat":"48.705523","lng":"-104.533913"},{"name":"Silver Bow","lat":"45.895959","lng":"-112.660222"},{"name":"Stillwater","lat":"45.663496","lng":"-109.391752"},{"name":"Sweet Grass","lat":"45.813060","lng":"-109.941312"},{"name":"Teton","lat":"47.819035","lng":"-112.281725"},{"name":"Toole","lat":"48.645052","lng":"-111.733493"},{"name":"Treasure","lat":"46.209636","lng":"-107.280494"},{"name":"Valley","lat":"48.365713","lng":"-106.687883"},{"name":"Wheatland","lat":"46.497047","lng":"-109.857147"},{"name":"Wibaux","lat":"46.962866","lng":"-104.274466"},{"name":"Yellowstone","lat":"45.936987","lng":"-108.276656"}],"NE":[{"name":"Adams","lat":"40.520632","lng":"-98.500044"},{"name":"Antelope","lat":"42.183225","lng":"-98.058037"},{"name":"Arthur","lat":"41.570856","lng":"-101.697045"},{"name":"Banner","lat":"41.539750","lng":"-103.726263"},{"name":"Blaine","lat":"41.925230","lng":"-99.990771"},{"name":"Boone","lat":"41.705400","lng":"-98.066794"},{"name":"Box Butte","lat":"42.215665","lng":"-103.087821"},{"name":"Boyd","lat":"42.894448","lng":"-98.773022"},{"name":"Brown","lat":"42.349390","lng":"-99.923176"},{"name":"Buffalo","lat":"40.855226","lng":"-99.074983"},{"name":"Burt","lat":"41.854179","lng":"-96.337746"},{"name":"Butler","lat":"41.226072","lng":"-97.132040"},{"name":"Cass","lat":"40.909878","lng":"-96.140609"},{"name":"Cedar","lat":"42.604511","lng":"-97.256824"},{"name":"Chase","lat":"40.530390","lng":"-101.694192"},{"name":"Cherry","lat":"42.566985","lng":"-101.072622"},{"name":"Cheyenne","lat":"41.214236","lng":"-103.011929"},{"name":"Clay","lat":"40.523669","lng":"-98.051050"},{"name":"Colfax","lat":"41.574675","lng":"-97.089455"},{"name":"Cuming","lat":"41.915865","lng":"-96.788517"},{"name":"Custer","lat":"41.393893","lng":"-99.726866"},{"name":"Dakota","lat":"42.390456","lng":"-96.562549"},{"name":"Dawes","lat":"42.711214","lng":"-103.134872"},{"name":"Dawson","lat":"40.867378","lng":"-99.815154"},{"name":"Deuel","lat":"41.112988","lng":"-102.332604"},{"name":"Dixon","lat":"42.485280","lng":"-96.855862"},{"name":"Dodge","lat":"41.577008","lng":"-96.645853"},{"name":"Douglas","lat":"41.297091","lng":"-96.154066"},{"name":"Dundy","lat":"40.180165","lng":"-101.681133"},{"name":"Fillmore","lat":"40.525040","lng":"-97.596705"},{"name":"Franklin","lat":"40.183203","lng":"-98.962080"},{"name":"Frontier","lat":"40.530947","lng":"-100.406683"},{"name":"Furnas","lat":"40.191991","lng":"-99.909661"},{"name":"Gage","lat":"40.255234","lng":"-96.683453"},{"name":"Garden","lat":"41.659381","lng":"-102.328229"},{"name":"Garfield","lat":"41.905572","lng":"-98.922998"},{"name":"Gosper","lat":"40.509838","lng":"-99.824078"},{"name":"Grant","lat":"41.915867","lng":"-101.756875"},{"name":"Greeley","lat":"41.567600","lng":"-98.530566"},{"name":"Hall","lat":"40.866023","lng":"-98.498004"},{"name":"Hamilton","lat":"40.877145","lng":"-98.021943"},{"name":"Harlan","lat":"40.178766","lng":"-99.403418"},{"name":"Hayes","lat":"40.535786","lng":"-101.055580"},{"name":"Hitchcock","lat":"40.176896","lng":"-101.044217"},{"name":"Holt","lat":"42.459287","lng":"-98.784766"},{"name":"Hooker","lat":"41.918700","lng":"-101.116810"},{"name":"Howard","lat":"41.219403","lng":"-98.513303"},{"name":"Jefferson","lat":"40.175736","lng":"-97.143103"},{"name":"Johnson","lat":"40.395457","lng":"-96.268562"},{"name":"Kearney","lat":"40.506269","lng":"-98.948461"},{"name":"Keith","lat":"41.194404","lng":"-101.644474"},{"name":"Keya Paha","lat":"42.875480","lng":"-99.718351"},{"name":"Kimball","lat":"41.199155","lng":"-103.711105"},{"name":"Knox","lat":"42.634405","lng":"-97.891349"},{"name":"Lancaster","lat":"40.783547","lng":"-96.688658"},{"name":"Lincoln","lat":"41.050322","lng":"-100.744481"},{"name":"Logan","lat":"41.542156","lng":"-100.443665"},{"name":"Loup","lat":"41.897714","lng":"-99.509764"},{"name":"McPherson","lat":"41.596473","lng":"-101.060237"},{"name":"Madison","lat":"41.909929","lng":"-97.606856"},{"name":"Merrick","lat":"41.169801","lng":"-98.031051"},{"name":"Morrill","lat":"41.732205","lng":"-102.990599"},{"name":"Nance","lat":"41.402386","lng":"-97.991408"},{"name":"Nemaha","lat":"40.387448","lng":"-95.850954"},{"name":"Nuckolls","lat":"40.176492","lng":"-98.046842"},{"name":"Otoe","lat":"40.637992","lng":"-96.131027"},{"name":"Pawnee","lat":"40.137850","lng":"-96.245225"},{"name":"Perkins","lat":"40.856065","lng":"-101.636443"},{"name":"Phelps","lat":"40.516365","lng":"-99.406557"},{"name":"Pierce","lat":"42.271413","lng":"-97.610992"},{"name":"Platte","lat":"41.576866","lng":"-97.513467"},{"name":"Polk","lat":"41.187925","lng":"-97.570663"},{"name":"Red Willow","lat":"40.169420","lng":"-100.468576"},{"name":"Richardson","lat":"40.123743","lng":"-95.718603"},{"name":"Rock","lat":"42.413325","lng":"-99.458530"},{"name":"Saline","lat":"40.516802","lng":"-97.131755"},{"name":"Sarpy","lat":"41.115064","lng":"-96.109125"},{"name":"Saunders","lat":"41.223152","lng":"-96.640923"},{"name":"Scotts Bluff","lat":"41.851589","lng":"-103.705860"},{"name":"Seward","lat":"40.871944","lng":"-97.140383"},{"name":"Sheridan","lat":"42.507074","lng":"-102.389698"},{"name":"Sherman","lat":"41.218743","lng":"-98.972849"},{"name":"Sioux","lat":"42.483806","lng":"-103.742605"},{"name":"Stanton","lat":"41.904793","lng":"-97.174724"},{"name":"Thayer","lat":"40.173845","lng":"-97.596263"},{"name":"Thomas","lat":"41.848620","lng":"-100.506911"},{"name":"Thurston","lat":"42.154061","lng":"-96.533943"},{"name":"Valley","lat":"41.564094","lng":"-98.983484"},{"name":"Washington","lat":"41.533979","lng":"-96.224574"},{"name":"Wayne","lat":"42.210746","lng":"-97.126243"},{"name":"Webster","lat":"40.180646","lng":"-98.498590"},{"name":"Wheeler","lat":"41.937859","lng":"-98.522289"},{"name":"York","lat":"40.873056","lng":"-97.596742"}],"NV":[{"name":"Churchill","lat":"39.525701","lng":"-118.270419"},{"name":"Clark","lat":"36.214236","lng":"-115.013819"},{"name":"Douglas","lat":"38.905129","lng":"-119.609019"},{"name":"Elko","lat":"41.141133","lng":"-115.351424"},{"name":"Esmeralda","lat":"37.778966","lng":"-117.632382"},{"name":"Eureka","lat":"39.977788","lng":"-116.272208"},{"name":"Humboldt","lat":"41.407914","lng":"-118.127592"},{"name":"Lander","lat":"39.900211","lng":"-117.047240"},{"name":"Lincoln","lat":"37.634605","lng":"-114.863037"},{"name":"Lyon","lat":"39.022214","lng":"-119.197417"},{"name":"Mineral","lat":"38.516647","lng":"-118.416279"},{"name":"Nye","lat":"37.966379","lng":"-116.459047"},{"name":"Pershing","lat":"40.439639","lng":"-118.409477"},{"name":"Storey","lat":"39.438385","lng":"-119.524646"},{"name":"Washoe","lat":"40.703311","lng":"-119.710315"},{"name":"White Pine","lat":"39.417804","lng":"-114.900945"},{"name":"Carson City","lat":"39.153447","lng":"-119.743442"}],"NH":[{"name":"Belknap","lat":"43.519109","lng":"-71.425366"},{"name":"Carroll","lat":"43.867567","lng":"-71.201665"},{"name":"Cheshire","lat":"42.925455","lng":"-72.248217"},{"name":"Coos","lat":"44.652419","lng":"-71.289383"},{"name":"Grafton","lat":"43.926488","lng":"-71.842264"},{"name":"Hillsborough","lat":"42.911643","lng":"-71.723101"},{"name":"Merrimack","lat":"43.299485","lng":"-71.680130"},{"name":"Rockingham","lat":"42.989360","lng":"-71.099437"},{"name":"Strafford","lat":"43.293177","lng":"-71.035927"},{"name":"Sullivan","lat":"43.361188","lng":"-72.222084"}],"NJ":[{"name":"Atlantic","lat":"39.469354","lng":"-74.633758"},